[
  {
    "ranking": 1,
    "title": "University of Oxford",
    "location": "United Kingdom",
    "numberStudents": "20,774",
    "genderRatio": "46 : 54",
    "percIntlStudents": "41%",
    "studentsStaffRatio": "11.1",
    "_geoloc": {
      "lat": 51.7548164,
      "lng": -1.2543668
    }
  },
  {
    "ranking": 2,
    "title": "Stanford University",
    "location": "United States",
    "numberStudents": "16,223",
    "genderRatio": "44 : 56",
    "percIntlStudents": "23%",
    "studentsStaffRatio": "7.4",
    "_geoloc": {
      "lat": 37.4274745,
      "lng": -122.169719
    }
  },
  {
    "ranking": 3,
    "title": "Harvard University",
    "location": "United States",
    "numberStudents": "21,261",
    "genderRatio": "49 : 51",
    "percIntlStudents": "25%",
    "studentsStaffRatio": "9.3",
    "_geoloc": {
      "lat": 42.3744368,
      "lng": -71.118281
    }
  },
  {
    "ranking": 4,
    "title": "California Institute of Technology",
    "location": "United States",
    "numberStudents": "2,238",
    "genderRatio": "36 : 64",
    "percIntlStudents": "33%",
    "studentsStaffRatio": "6.3",
    "_geoloc": {
      "lat": 34.1376576,
      "lng": -118.125269
    }
  },
  {
    "ranking": 5,
    "title": "Massachusetts Institute of Technology",
    "location": "United States",
    "numberStudents": "11,276",
    "genderRatio": "39 : 61",
    "percIntlStudents": "34%",
    "studentsStaffRatio": "8.4",
    "_geoloc": {
      "lat": 42.360091,
      "lng": -71.09416
    }
  },
  {
    "ranking": 6,
    "title": "University of Cambridge",
    "location": "United Kingdom",
    "numberStudents": "19,370",
    "genderRatio": "47 : 53",
    "percIntlStudents": "38%",
    "studentsStaffRatio": "11.0"
  },
  {
    "ranking": 7,
    "title": "University of California, Berkeley",
    "location": "United States",
    "numberStudents": "39,918",
    "genderRatio": "51 : 49",
    "percIntlStudents": "17%",
    "studentsStaffRatio": "19.8",
    "_geoloc": {
      "lat": 37.87015100000001,
      "lng": -122.2594606
    }
  },
  {
    "ranking": 8,
    "title": "Yale University",
    "location": "United States",
    "numberStudents": "12,910",
    "genderRatio": "50 : 50",
    "percIntlStudents": "20%",
    "studentsStaffRatio": "6.0",
    "_geoloc": {
      "lat": 41.3163244,
      "lng": -72.92234309999999
    }
  },
  {
    "ranking": 9,
    "title": "Princeton University",
    "location": "United States",
    "numberStudents": "8,091",
    "genderRatio": "46 : 54",
    "percIntlStudents": "23%",
    "studentsStaffRatio": "8.0",
    "_geoloc": {
      "lat": 40.3430942,
      "lng": -74.65507389999999
    }
  },
  {
    "ranking": 10,
    "title": "The University of Chicago",
    "location": "United States",
    "numberStudents": "14,292",
    "genderRatio": "46 : 54",
    "percIntlStudents": "31%",
    "studentsStaffRatio": "5.9",
    "_geoloc": {
      "lat": 41.7886079,
      "lng": -87.5987133
    }
  },
  {
    "ranking": 11,
    "title": "Imperial College London",
    "location": "United Kingdom",
    "numberStudents": "17,176",
    "genderRatio": "39 : 61",
    "percIntlStudents": "58%",
    "studentsStaffRatio": "11.6",
    "_geoloc": {
      "lat": 51.49882220000001,
      "lng": -0.1748735
    }
  },
  {
    "ranking": 12,
    "title": "Johns Hopkins University",
    "location": "United States",
    "numberStudents": "16,432",
    "genderRatio": "52 : 48",
    "percIntlStudents": "27%",
    "studentsStaffRatio": "4.4",
    "_geoloc": {
      "lat": 39.3299013,
      "lng": -76.6205177
    }
  },
  {
    "ranking": 13,
    "title": "University of Pennsylvania",
    "location": "United States",
    "numberStudents": "20,771",
    "genderRatio": "52 : 48",
    "percIntlStudents": "21%",
    "studentsStaffRatio": "6.4",
    "_geoloc": {
      "lat": 39.9522188,
      "lng": -75.1932137
    }
  },
  {
    "ranking": 14,
    "title": "ETH Zurich",
    "location": "Switzerland",
    "numberStudents": "19,632",
    "genderRatio": "32 : 68",
    "percIntlStudents": "40%",
    "studentsStaffRatio": "13.1",
    "_geoloc": {
      "lat": 47.37638889999999,
      "lng": 8.547628
    }
  },
  {
    "ranking": 15,
    "title": "University of California, Los Angeles",
    "location": "United States",
    "numberStudents": "41,673",
    "genderRatio": "55 : 45",
    "percIntlStudents": "17%",
    "studentsStaffRatio": "10.0",
    "_geoloc": {
      "lat": 34.0699182,
      "lng": -118.4438495
    }
  },
  {
    "ranking": 16,
    "title": "UCL",
    "location": "United Kingdom",
    "numberStudents": "34,590",
    "genderRatio": "57 : 43",
    "percIntlStudents": "55%",
    "studentsStaffRatio": "10.8"
  },
  {
    "ranking": 17,
    "title": "Columbia University",
    "location": "United States",
    "numberStudents": "27,384",
    "genderRatio": "n/a",
    "percIntlStudents": "39%",
    "studentsStaffRatio": "5.7",
    "_geoloc": {
      "lat": 40.8075355,
      "lng": -73.9625727
    }
  },
  {
    "ranking": 18,
    "title": "University of Toronto",
    "location": "Canada",
    "numberStudents": "74,502",
    "genderRatio": "59 : 41",
    "percIntlStudents": "22%",
    "studentsStaffRatio": "20.0",
    "_geoloc": {
      "lat": 43.6628917,
      "lng": -79.39565640000001
    }
  },
  {
    "ranking": 19,
    "title": "Cornell University",
    "location": "United States",
    "numberStudents": "23,016",
    "genderRatio": "50 : 50",
    "percIntlStudents": "25%",
    "studentsStaffRatio": "10.2",
    "_geoloc": {
      "lat": 42.4534492,
      "lng": -76.4735027
    }
  },
  {
    "ranking": 20,
    "title": "Duke University",
    "location": "United States",
    "numberStudents": "15,489",
    "genderRatio": "49 : 51",
    "percIntlStudents": "21%",
    "studentsStaffRatio": "4.3",
    "_geoloc": {
      "lat": 36.0014258,
      "lng": -78.9382286
    }
  },
  {
    "ranking": 21,
    "title": "Tsinghua University",
    "location": "China",
    "numberStudents": "37,484",
    "genderRatio": "34 : 66",
    "percIntlStudents": "13%",
    "studentsStaffRatio": "11.6",
    "_geoloc": {
      "lat": 39.9996674,
      "lng": 116.3264439
    }
  },
  {
    "ranking": 22,
    "title": "University of Michigan-Ann Arbor",
    "location": "United States",
    "numberStudents": "43,873",
    "genderRatio": "50 : 50",
    "percIntlStudents": "17%",
    "studentsStaffRatio": "8.3",
    "_geoloc": {
      "lat": 42.277145,
      "lng": -83.7382071
    }
  },
  {
    "ranking": 23,
    "title": "Peking University",
    "location": "China",
    "numberStudents": "38,583",
    "genderRatio": "43 : 57",
    "percIntlStudents": "16%",
    "studentsStaffRatio": "11.1",
    "_geoloc": {
      "lat": 39.986913,
      "lng": 116.3058739
    }
  },
  {
    "ranking": 24,
    "title": "Northwestern University",
    "location": "United States",
    "numberStudents": "18,529",
    "genderRatio": "49 : 51",
    "percIntlStudents": "19%",
    "studentsStaffRatio": "13.0",
    "_geoloc": {
      "lat": 42.0564594,
      "lng": -87.67526699999999
    }
  },
  {
    "ranking": 25,
    "title": "National University of Singapore",
    "location": "Singapore",
    "numberStudents": "30,943",
    "genderRatio": "50 : 50",
    "percIntlStudents": "26%",
    "studentsStaffRatio": "18.0",
    "_geoloc": {
      "lat": 1.2966426,
      "lng": 103.7763939
    }
  },
  {
    "ranking": 26,
    "title": "New York University",
    "location": "United States",
    "numberStudents": "44,474",
    "genderRatio": "57 : 43",
    "percIntlStudents": "34%",
    "studentsStaffRatio": "8.8",
    "_geoloc": {
      "lat": 40.7127753,
      "lng": -74.0059728
    }
  },
  {
    "ranking": 27,
    "title": "London School of Economics and Political Science",
    "location": "United Kingdom",
    "numberStudents": "10,660",
    "genderRatio": "54 : 46",
    "percIntlStudents": "72%",
    "studentsStaffRatio": "12.0",
    "_geoloc": {
      "lat": 51.5144388,
      "lng": -0.1164513
    }
  },
  {
    "ranking": 28,
    "title": "Carnegie Mellon University",
    "location": "United States",
    "numberStudents": "14,058",
    "genderRatio": "43 : 57",
    "percIntlStudents": "48%",
    "studentsStaffRatio": "13.7",
    "_geoloc": {
      "lat": 40.4432027,
      "lng": -79.9428499
    }
  },
  {
    "ranking": 29,
    "title": "University of Washington",
    "location": "United States",
    "numberStudents": "46,258",
    "genderRatio": "53 : 47",
    "percIntlStudents": "17%",
    "studentsStaffRatio": "10.7"
  },
  {
    "ranking": 30,
    "title": "University of Edinburgh",
    "location": "United Kingdom",
    "numberStudents": "30,649",
    "genderRatio": "60 : 40",
    "percIntlStudents": "42%",
    "studentsStaffRatio": "12.1",
    "_geoloc": {
      "lat": 55.9445158,
      "lng": -3.1892413
    }
  },
  {
    "ranking": 31,
    "title": "University of Melbourne",
    "location": "Australia",
    "numberStudents": "50,094",
    "genderRatio": "57 : 43",
    "percIntlStudents": "48%",
    "studentsStaffRatio": "27.0",
    "_geoloc": {
      "lat": -37.7983459,
      "lng": 144.960974
    }
  },
  {
    "ranking": 32,
    "title": "LMU Munich",
    "location": "Germany",
    "numberStudents": "34,249",
    "genderRatio": "61 : 39",
    "percIntlStudents": "17%",
    "studentsStaffRatio": "33.6",
    "_geoloc": {
      "lat": 48.1507496,
      "lng": 11.5805262
    }
  },
  {
    "ranking": 33,
    "title": "University of California, San Diego",
    "location": "United States",
    "numberStudents": "34,232",
    "genderRatio": "47 : 53",
    "percIntlStudents": "30%",
    "studentsStaffRatio": "12.0",
    "_geoloc": {
      "lat": 32.8800604,
      "lng": -117.2340135
    }
  },
  {
    "ranking": 34,
    "title": "University of British Columbia",
    "location": "Canada",
    "numberStudents": "53,123",
    "genderRatio": "55 : 45",
    "percIntlStudents": "32%",
    "studentsStaffRatio": "18.7",
    "_geoloc": {
      "lat": 49.26060520000001,
      "lng": -123.2459939
    }
  },
  {
    "ranking": 35,
    "title": "King’s College London",
    "location": "United Kingdom",
    "numberStudents": "27,400",
    "genderRatio": "62 : 38",
    "percIntlStudents": "46%",
    "studentsStaffRatio": "12.4",
    "_geoloc": {
      "lat": 51.5114864,
      "lng": -0.115997
    }
  },
  {
    "ranking": 36,
    "title": "Karolinska Institute",
    "location": "Sweden",
    "numberStudents": "7,696",
    "genderRatio": "68 : 32",
    "percIntlStudents": "26%",
    "studentsStaffRatio": "8.8",
    "_geoloc": {
      "lat": 59.34814839999999,
      "lng": 18.0236578
    }
  },
  {
    "ranking": 37,
    "title": "The University of Tokyo",
    "location": "Japan",
    "numberStudents": "25,935",
    "genderRatio": "n/a",
    "percIntlStudents": "13%",
    "studentsStaffRatio": "10.6",
    "_geoloc": {
      "lat": 35.7126775,
      "lng": 139.761989
    }
  },
  {
    "ranking": 38,
    "title": "Georgia Institute of Technology",
    "location": "United States",
    "numberStudents": "26,043",
    "genderRatio": "33 : 67",
    "percIntlStudents": "27%",
    "studentsStaffRatio": "23.6",
    "_geoloc": {
      "lat": 33.7756178,
      "lng": -84.39628499999999
    }
  },
  {
    "ranking": 39,
    "title": "University of Hong Kong",
    "location": "Hong Kong",
    "numberStudents": "18,135",
    "genderRatio": "54 : 46",
    "percIntlStudents": "43%",
    "studentsStaffRatio": "18.2",
    "_geoloc": {
      "lat": 22.2830891,
      "lng": 114.1365621
    }
  },
  {
    "ranking": 40,
    "title": "McGill University",
    "location": "Canada",
    "numberStudents": "31,578",
    "genderRatio": "59 : 41",
    "percIntlStudents": "31%",
    "studentsStaffRatio": "12.8",
    "_geoloc": {
      "lat": 45.50478469999999,
      "lng": -73.5771511
    }
  },
  {
    "ranking": 41,
    "title": "Technical University of Munich",
    "location": "Germany",
    "numberStudents": "32,377",
    "genderRatio": "36 : 64",
    "percIntlStudents": "31%",
    "studentsStaffRatio": "39.8",
    "_geoloc": {
      "lat": 48.14966,
      "lng": 11.5678602
    }
  },
  {
    "ranking": 42,
    "title": "Heidelberg University",
    "location": "Germany",
    "numberStudents": "20,020",
    "genderRatio": "54 : 46",
    "percIntlStudents": "18%",
    "studentsStaffRatio": "14.5",
    "_geoloc": {
      "lat": 49.4102117,
      "lng": 8.7069273
    }
  },
  {
    "ranking": 43,
    "title": "École Polytechnique Fédérale de Lausanne",
    "location": "Switzerland",
    "numberStudents": "10,942",
    "genderRatio": "29 : 71",
    "percIntlStudents": "60%",
    "studentsStaffRatio": "12.2",
    "_geoloc": {
      "lat": 46.5190557,
      "lng": 6.5667576
    }
  },
  {
    "ranking": 44,
    "title": "University of Texas at Austin",
    "location": "United States",
    "numberStudents": "49,510",
    "genderRatio": "52 : 48",
    "percIntlStudents": "10%",
    "studentsStaffRatio": "16.9",
    "_geoloc": {
      "lat": 30.2849185,
      "lng": -97.7340567
    }
  },
  {
    "ranking": 45,
    "title": "KU Leuven",
    "location": "Belgium",
    "numberStudents": "45,617",
    "genderRatio": "50 : 50",
    "percIntlStudents": "15%",
    "studentsStaffRatio": "36.1",
    "_geoloc": {
      "lat": 50.87809710000001,
      "lng": 4.699705300000001
    }
  },
  {
    "ranking": 46,
    "title": "Paris Sciences et Lettres – PSL Research University Paris",
    "location": "France",
    "numberStudents": "20,701",
    "genderRatio": "46 : 54",
    "percIntlStudents": "24%",
    "studentsStaffRatio": "14.7",
    "_geoloc": {
      "lat": 48.8546485,
      "lng": 2.337593
    }
  },
  {
    "ranking": 47,
    "title": "Nanyang Technological University, Singapore",
    "location": "Singapore",
    "numberStudents": "23,902",
    "genderRatio": "48 : 52",
    "percIntlStudents": "25%",
    "studentsStaffRatio": "14.8",
    "_geoloc": {
      "lat": 1.3483099,
      "lng": 103.6831347
    }
  },
  {
    "ranking": 48,
    "title": "University of Illinois at Urbana-Champaign",
    "location": "United States",
    "numberStudents": "45,980",
    "genderRatio": "48 : 52",
    "percIntlStudents": "24%",
    "studentsStaffRatio": "17.8",
    "_geoloc": {
      "lat": 40.1019523,
      "lng": -88.2271615
    }
  },
  {
    "ranking": 49,
    "title": "University of Wisconsin-Madison",
    "location": "United States",
    "numberStudents": "39,451",
    "genderRatio": "n/a",
    "percIntlStudents": "13%",
    "studentsStaffRatio": "9.8",
    "_geoloc": {
      "lat": 43.076592,
      "lng": -89.4124875
    }
  },
  {
    "ranking": 50,
    "title": "Washington University in St Louis",
    "location": "United States",
    "numberStudents": "13,693",
    "genderRatio": "n/a",
    "percIntlStudents": "21%",
    "studentsStaffRatio": "7.5",
    "_geoloc": {
      "lat": 38.6487895,
      "lng": -90.31079620000001
    }
  },
  {
    "ranking": 51,
    "title": "University of Manchester",
    "location": "United Kingdom",
    "numberStudents": "36,557",
    "genderRatio": "53 : 47",
    "percIntlStudents": "41%",
    "studentsStaffRatio": "14.4",
    "_geoloc": {
      "lat": 53.4668498,
      "lng": -2.2338837
    }
  },
  {
    "ranking": 52,
    "title": "University of Sydney",
    "location": "Australia",
    "numberStudents": "46,453",
    "genderRatio": "58 : 42",
    "percIntlStudents": "43%",
    "studentsStaffRatio": "19.4"
  },
  {
    "ranking": 53,
    "title": "University of Southern California",
    "location": "United States",
    "numberStudents": "41,953",
    "genderRatio": "49 : 51",
    "percIntlStudents": "23%",
    "studentsStaffRatio": "13.0",
    "_geoloc": {
      "lat": 34.0223519,
      "lng": -118.285117
    }
  },
  {
    "ranking": 54,
    "title": "Boston University",
    "location": "United States",
    "numberStudents": "26,510",
    "genderRatio": "59 : 41",
    "percIntlStudents": "28%",
    "studentsStaffRatio": "11.1",
    "_geoloc": {
      "lat": 42.3504997,
      "lng": -71.1053991
    }
  },
  {
    "ranking": 55,
    "title": "Kyoto University",
    "location": "Japan",
    "numberStudents": "22,935",
    "genderRatio": "25 : 75",
    "percIntlStudents": "11%",
    "studentsStaffRatio": "9.3",
    "_geoloc": {
      "lat": 35.0262444,
      "lng": 135.7808218
    }
  },
  {
    "ranking": 56,
    "title": "Chinese University of Hong Kong",
    "location": "Hong Kong",
    "numberStudents": "18,675",
    "genderRatio": "n/a",
    "percIntlStudents": "33%",
    "studentsStaffRatio": "19.3",
    "_geoloc": {
      "lat": 22.419625,
      "lng": 114.2067606
    }
  },
  {
    "ranking": 57,
    "title": "The Hong Kong University of Science and Technology",
    "location": "Hong Kong",
    "numberStudents": "9,976",
    "genderRatio": "n/a",
    "percIntlStudents": "30%",
    "studentsStaffRatio": "21.6",
    "_geoloc": {
      "lat": 22.338017,
      "lng": 114.266618
    }
  },
  {
    "ranking": 58,
    "title": "University of North Carolina at Chapel Hill",
    "location": "United States",
    "numberStudents": "30,956",
    "genderRatio": "58 : 42",
    "percIntlStudents": "8%",
    "studentsStaffRatio": "8.2",
    "_geoloc": {
      "lat": 35.9049122,
      "lng": -79.0469134
    }
  },
  {
    "ranking": 59,
    "title": "Australian National University",
    "location": "Australia",
    "numberStudents": "18,801",
    "genderRatio": "53 : 47",
    "percIntlStudents": "47%",
    "studentsStaffRatio": "17.8",
    "_geoloc": {
      "lat": -35.2812533,
      "lng": 149.1183238
    }
  },
  {
    "ranking": 60,
    "title": "Seoul National University",
    "location": "South Korea",
    "numberStudents": "26,757",
    "genderRatio": "n/a",
    "percIntlStudents": "11%",
    "studentsStaffRatio": "15.1",
    "_geoloc": {
      "lat": 37.4565095,
      "lng": 126.9500385
    }
  },
  {
    "ranking": 61,
    "title": "Brown University",
    "location": "United States",
    "numberStudents": "9,695",
    "genderRatio": "n/a",
    "percIntlStudents": "20%",
    "studentsStaffRatio": "10.8",
    "_geoloc": {
      "lat": 41.8267718,
      "lng": -71.4025482
    }
  },
  {
    "ranking": 62,
    "title": "The University of Queensland",
    "location": "Australia",
    "numberStudents": "40,389",
    "genderRatio": "55 : 45",
    "percIntlStudents": "38%",
    "studentsStaffRatio": "35.5",
    "_geoloc": {
      "lat": -27.4975028,
      "lng": 153.0136905
    }
  },
  {
    "ranking": 63,
    "title": "Wageningen University & Research",
    "location": "Netherlands",
    "numberStudents": "14,356",
    "genderRatio": "54 : 46",
    "percIntlStudents": "27%",
    "studentsStaffRatio": "21.0",
    "_geoloc": {
      "lat": 51.9863475,
      "lng": 5.6680191
    }
  },
  {
    "ranking": 64,
    "title": "University of California, Davis",
    "location": "United States",
    "numberStudents": "36,395",
    "genderRatio": "58 : 42",
    "percIntlStudents": "17%",
    "studentsStaffRatio": "13.6",
    "_geoloc": {
      "lat": 38.5382322,
      "lng": -121.7617125
    }
  },
  {
    "ranking": 65,
    "title": "Monash University",
    "location": "Australia",
    "numberStudents": "57,406",
    "genderRatio": "57 : 43",
    "percIntlStudents": "43%",
    "studentsStaffRatio": "41.7",
    "_geoloc": {
      "lat": -37.9142416,
      "lng": 145.1346592
    }
  },
  {
    "ranking": 66,
    "title": "University of Amsterdam",
    "location": "Netherlands",
    "numberStudents": "24,747",
    "genderRatio": "57 : 43",
    "percIntlStudents": "24%",
    "studentsStaffRatio": "12.8",
    "_geoloc": {
      "lat": 52.35581819999999,
      "lng": 4.955726299999999
    }
  },
  {
    "ranking": 67,
    "title": "UNSW Sydney",
    "location": "Australia",
    "numberStudents": "46,234",
    "genderRatio": "47 : 53",
    "percIntlStudents": "44%",
    "studentsStaffRatio": "41.0",
    "_geoloc": {
      "lat": -33.917347,
      "lng": 151.2312675
    }
  },
  {
    "ranking": 68,
    "title": "University of California, Santa Barbara",
    "location": "United States",
    "numberStudents": "24,780",
    "genderRatio": "53 : 47",
    "percIntlStudents": "18%",
    "studentsStaffRatio": "28.2",
    "_geoloc": {
      "lat": 34.4139629,
      "lng": -119.848947
    }
  },
  {
    "ranking": 69,
    "title": "McMaster University",
    "location": "Canada",
    "numberStudents": "25,285",
    "genderRatio": "55 : 45",
    "percIntlStudents": "18%",
    "studentsStaffRatio": "30.5",
    "_geoloc": {
      "lat": 43.260879,
      "lng": -79.9192254
    }
  },
  {
    "ranking": 70,
    "title": "Fudan University",
    "location": "China",
    "numberStudents": "32,597",
    "genderRatio": "52 : 48",
    "percIntlStudents": "13%",
    "studentsStaffRatio": "11.2",
    "_geoloc": {
      "lat": 31.2974197,
      "lng": 121.5036178
    }
  },
  {
    "ranking": 71,
    "title": "Leiden University",
    "location": "Netherlands",
    "numberStudents": "30,178",
    "genderRatio": "59 : 41",
    "percIntlStudents": "18%",
    "studentsStaffRatio": "19.0",
    "_geoloc": {
      "lat": 52.1565752,
      "lng": 4.4863129
    }
  },
  {
    "ranking": 72,
    "title": "Erasmus University Rotterdam",
    "location": "Netherlands",
    "numberStudents": "26,453",
    "genderRatio": "50 : 50",
    "percIntlStudents": "22%",
    "studentsStaffRatio": "26.8",
    "_geoloc": {
      "lat": 51.9172477,
      "lng": 4.5263027
    }
  },
  {
    "ranking": 73,
    "title": "University of Montreal",
    "location": "Canada",
    "numberStudents": "36,774",
    "genderRatio": "n/a",
    "percIntlStudents": "21%",
    "studentsStaffRatio": "20.2",
    "_geoloc": {
      "lat": 45.5056156,
      "lng": -73.61375919999999
    }
  },
  {
    "ranking": 74,
    "title": "University of Zurich",
    "location": "Switzerland",
    "numberStudents": "22,960",
    "genderRatio": "57 : 43",
    "percIntlStudents": "21%",
    "studentsStaffRatio": "14.8",
    "_geoloc": {
      "lat": 47.3745896,
      "lng": 8.5486629
    }
  },
  {
    "ranking": 75,
    "title": "Charité - Universitätsmedizin Berlin",
    "location": "Germany",
    "numberStudents": "7,431",
    "genderRatio": "65 : 35",
    "percIntlStudents": "20%",
    "studentsStaffRatio": "17.4",
    "_geoloc": {
      "lat": 52.5264618,
      "lng": 13.3766245
    }
  },
  {
    "ranking": 76,
    "title": "Utrecht University",
    "location": "Netherlands",
    "numberStudents": "32,022",
    "genderRatio": "58 : 42",
    "percIntlStudents": "10%",
    "studentsStaffRatio": "14.0",
    "_geoloc": {
      "lat": 52.08518249999999,
      "lng": 5.1757062
    }
  },
  {
    "ranking": 77,
    "title": "University of Warwick",
    "location": "United Kingdom",
    "numberStudents": "21,777",
    "genderRatio": "49 : 51",
    "percIntlStudents": "41%",
    "studentsStaffRatio": "13.3",
    "_geoloc": {
      "lat": 52.3792525,
      "lng": -1.5614704
    }
  },
  {
    "ranking": 78,
    "title": "Delft University of Technology",
    "location": "Netherlands",
    "numberStudents": "19,594",
    "genderRatio": "30 : 70",
    "percIntlStudents": "31%",
    "studentsStaffRatio": "17.4",
    "_geoloc": {
      "lat": 52.0021919,
      "lng": 4.3735766
    }
  },
  {
    "ranking": 79,
    "title": "University of Tübingen",
    "location": "Germany",
    "numberStudents": "27,590",
    "genderRatio": "58 : 42",
    "percIntlStudents": "14%",
    "studentsStaffRatio": "36.6",
    "_geoloc": {
      "lat": 48.5291308,
      "lng": 9.0425313
    }
  },
  {
    "ranking": 80,
    "title": "University of Groningen",
    "location": "Netherlands",
    "numberStudents": "28,392",
    "genderRatio": "51 : 49",
    "percIntlStudents": "23%",
    "studentsStaffRatio": "23.9",
    "_geoloc": {
      "lat": 53.2193266,
      "lng": 6.562830099999999
    }
  },
  {
    "ranking": 81,
    "title": "Humboldt University of Berlin",
    "location": "Germany",
    "numberStudents": "33,388",
    "genderRatio": "n/a",
    "percIntlStudents": "18%",
    "studentsStaffRatio": "56.3",
    "_geoloc": {
      "lat": 52.517883,
      "lng": 13.3936551
    }
  },
  {
    "ranking": 82,
    "title": "Ohio State University (Main campus)",
    "location": "United States",
    "numberStudents": "54,650",
    "genderRatio": "50 : 50",
    "percIntlStudents": "13%",
    "studentsStaffRatio": "12.1",
    "_geoloc": {
      "lat": 40.0066723,
      "lng": -83.0304546
    }
  },
  {
    "ranking": 83,
    "title": "University of Freiburg",
    "location": "Germany",
    "numberStudents": "14,878",
    "genderRatio": "54 : 46",
    "percIntlStudents": "21%",
    "studentsStaffRatio": "32.5",
    "_geoloc": {
      "lat": 47.9935441,
      "lng": 7.845949599999999
    }
  },
  {
    "ranking": 84,
    "title": "University of Copenhagen",
    "location": "Denmark",
    "numberStudents": "30,746",
    "genderRatio": "62 : 38",
    "percIntlStudents": "17%",
    "studentsStaffRatio": "4.2",
    "_geoloc": {
      "lat": 55.6802303,
      "lng": 12.5724096
    }
  },
  {
    "ranking": 85,
    "title": "Emory University",
    "location": "United States",
    "numberStudents": "12,923",
    "genderRatio": "59 : 41",
    "percIntlStudents": "20%",
    "studentsStaffRatio": "4.0",
    "_geoloc": {
      "lat": 33.7971368,
      "lng": -84.32224
    }
  },
  {
    "ranking": 86,
    "title": "University of Minnesota",
    "location": "United States",
    "numberStudents": "61,994",
    "genderRatio": "53 : 47",
    "percIntlStudents": "11%",
    "studentsStaffRatio": "12.4",
    "_geoloc": {
      "lat": 44.97399,
      "lng": -93.2277285
    }
  },
  {
    "ranking": 87,
    "title": "École Polytechnique",
    "location": "France",
    "numberStudents": "2,850",
    "genderRatio": "23 : 77",
    "percIntlStudents": "44%",
    "studentsStaffRatio": "5.6",
    "_geoloc": {
      "lat": 48.7142971,
      "lng": 2.2112917
    }
  },
  {
    "ranking": 88,
    "title": "University of Science and Technology of China",
    "location": "China",
    "numberStudents": "16,434",
    "genderRatio": "n/a",
    "percIntlStudents": "5%",
    "studentsStaffRatio": "7.2",
    "_geoloc": {
      "lat": 31.821994,
      "lng": 117.28059
    }
  },
  {
    "ranking": 89,
    "title": "Sorbonne University",
    "location": "France",
    "numberStudents": "43,585",
    "genderRatio": "58 : 42",
    "percIntlStudents": "20%",
    "studentsStaffRatio": "12.8",
    "_geoloc": {
      "lat": 48.85055149999999,
      "lng": 2.3403275
    }
  },
  {
    "ranking": 90,
    "title": "University of Maryland, College Park",
    "location": "United States",
    "numberStudents": "33,671",
    "genderRatio": "48 : 52",
    "percIntlStudents": "11%",
    "studentsStaffRatio": "16.6",
    "_geoloc": {
      "lat": 38.9869183,
      "lng": -76.9425543
    }
  },
  {
    "ranking": 91,
    "title": "University of Bristol",
    "location": "United Kingdom",
    "numberStudents": "22,981",
    "genderRatio": "55 : 45",
    "percIntlStudents": "28%",
    "studentsStaffRatio": "14.5",
    "_geoloc": {
      "lat": 51.4585376,
      "lng": -2.6021758
    }
  },
  {
    "ranking": 92,
    "title": "University of Basel",
    "location": "Switzerland",
    "numberStudents": "9,229",
    "genderRatio": "55 : 45",
    "percIntlStudents": "30%",
    "studentsStaffRatio": "12.3",
    "_geoloc": {
      "lat": 47.5585281,
      "lng": 7.5838692
    }
  },
  {
    "ranking": 93,
    "title": "University of Glasgow",
    "location": "United Kingdom",
    "numberStudents": "26,533",
    "genderRatio": "59 : 41",
    "percIntlStudents": "38%",
    "studentsStaffRatio": "14.7",
    "_geoloc": {
      "lat": 55.8724256,
      "lng": -4.2900009
    }
  },
  {
    "ranking": 94,
    "title": "Purdue University West Lafayette",
    "location": "United States",
    "numberStudents": "41,573",
    "genderRatio": "43 : 57",
    "percIntlStudents": "22%",
    "studentsStaffRatio": "16.3",
    "_geoloc": {
      "lat": 40.4237054,
      "lng": -86.92119459999999
    }
  },
  {
    "ranking": 95,
    "title": "Zhejiang University",
    "location": "China",
    "numberStudents": "33,825",
    "genderRatio": "23 : 77",
    "percIntlStudents": "23%",
    "studentsStaffRatio": "10.8",
    "_geoloc": {
      "lat": 30.30868439999999,
      "lng": 120.0864995
    }
  },
  {
    "ranking": 96,
    "title": "Korea Advanced Institute of Science and Technology (KAIST)",
    "location": "South Korea",
    "numberStudents": "9,514",
    "genderRatio": "20 : 80",
    "percIntlStudents": "9%",
    "studentsStaffRatio": "10.4",
    "_geoloc": {
      "lat": 36.3721427,
      "lng": 127.36039
    }
  },
  {
    "ranking": 97,
    "title": "National Taiwan University (NTU)",
    "location": "Taiwan",
    "numberStudents": "24,880",
    "genderRatio": "43 : 57",
    "percIntlStudents": "12%",
    "studentsStaffRatio": "9.9",
    "_geoloc": {
      "lat": 25.0173405,
      "lng": 121.5397518
    }
  },
  {
    "ranking": 98,
    "title": "University of California, Irvine",
    "location": "United States",
    "numberStudents": "35,040",
    "genderRatio": "52 : 48",
    "percIntlStudents": "27%",
    "studentsStaffRatio": "17.5",
    "_geoloc": {
      "lat": 33.6423814,
      "lng": -117.8416747
    }
  },
  {
    "ranking": 99,
    "title": "University of Helsinki",
    "location": "Finland",
    "numberStudents": "22,137",
    "genderRatio": "66 : 34",
    "percIntlStudents": "5%",
    "studentsStaffRatio": "15.9",
    "_geoloc": {
      "lat": 60.1726348,
      "lng": 24.9510419
    }
  },
  {
    "ranking": 100,
    "title": "Shanghai Jiao Tong University",
    "location": "China",
    "numberStudents": "38,556",
    "genderRatio": "39 : 61",
    "percIntlStudents": "11%",
    "studentsStaffRatio": "11.9",
    "_geoloc": {
      "lat": 31.0252201,
      "lng": 121.4337784
    }
  },
  {
    "ranking": 101,
    "title": "Dartmouth College",
    "location": "United States",
    "numberStudents": "6,336",
    "genderRatio": "48 : 52",
    "percIntlStudents": "15%",
    "studentsStaffRatio": "7.6",
    "_geoloc": {
      "lat": 43.7044406,
      "lng": -72.2886934
    }
  },
  {
    "ranking": 102,
    "title": "Sungkyunkwan University (SKKU)",
    "location": "South Korea",
    "numberStudents": "23,340",
    "genderRatio": "43 : 57",
    "percIntlStudents": "18%",
    "studentsStaffRatio": "19.5",
    "_geoloc": {
      "lat": 37.588227,
      "lng": 126.993606
    }
  },
  {
    "ranking": 103,
    "title": "Ghent University",
    "location": "Belgium",
    "numberStudents": "37,587",
    "genderRatio": "56 : 44",
    "percIntlStudents": "11%",
    "studentsStaffRatio": "36.1",
    "_geoloc": {
      "lat": 51.0466584,
      "lng": 3.7273733
    }
  },
  {
    "ranking": 104,
    "title": "Lund University",
    "location": "Sweden",
    "numberStudents": "27,443",
    "genderRatio": "55 : 45",
    "percIntlStudents": "19%",
    "studentsStaffRatio": "11.3",
    "_geoloc": {
      "lat": 55.7119483,
      "lng": 13.203493
    }
  },
  {
    "ranking": 105,
    "title": "Michigan State University",
    "location": "United States",
    "numberStudents": "44,618",
    "genderRatio": "51 : 49",
    "percIntlStudents": "15%",
    "studentsStaffRatio": "16.1",
    "_geoloc": {
      "lat": 42.701848,
      "lng": -84.4821719
    }
  },
  {
    "ranking": 106,
    "title": "Aarhus University",
    "location": "Denmark",
    "numberStudents": "26,318",
    "genderRatio": "55 : 45",
    "percIntlStudents": "10%",
    "studentsStaffRatio": "13.8",
    "_geoloc": {
      "lat": 56.1681384,
      "lng": 10.2030118
    }
  },
  {
    "ranking": 107,
    "title": "University of Birmingham",
    "location": "United Kingdom",
    "numberStudents": "30,193",
    "genderRatio": "57 : 43",
    "percIntlStudents": "30%",
    "studentsStaffRatio": "14.8",
    "_geoloc": {
      "lat": 52.4508168,
      "lng": -1.9305135
    }
  },
  {
    "ranking": 108,
    "title": "RWTH Aachen University",
    "location": "Germany",
    "numberStudents": "45,256",
    "genderRatio": "32 : 68",
    "percIntlStudents": "23%",
    "studentsStaffRatio": "58.4",
    "_geoloc": {
      "lat": 50.77792549999999,
      "lng": 6.0774501
    }
  },
  {
    "ranking": 109,
    "title": "University of Bern",
    "location": "Switzerland",
    "numberStudents": "11,417",
    "genderRatio": "57 : 43",
    "percIntlStudents": "16%",
    "studentsStaffRatio": "16.8",
    "_geoloc": {
      "lat": 46.9502293,
      "lng": 7.436926
    }
  },
  {
    "ranking": 110,
    "title": "Queen Mary University of London",
    "location": "United Kingdom",
    "numberStudents": "19,365",
    "genderRatio": "55 : 45",
    "percIntlStudents": "45%",
    "studentsStaffRatio": "13.6",
    "_geoloc": {
      "lat": 51.5240671,
      "lng": -0.0403745
    }
  },
  {
    "ranking": 111,
    "title": "Nanjing University",
    "location": "China",
    "numberStudents": "37,475",
    "genderRatio": "49 : 51",
    "percIntlStudents": "9%",
    "studentsStaffRatio": "17.5",
    "_geoloc": {
      "lat": 32.0568391,
      "lng": 118.7789602
    }
  },
  {
    "ranking": 112,
    "title": "Uppsala University",
    "location": "Sweden",
    "numberStudents": "25,112",
    "genderRatio": "58 : 42",
    "percIntlStudents": "18%",
    "studentsStaffRatio": "15.8",
    "_geoloc": {
      "lat": 59.85090049999999,
      "lng": 17.6300093
    }
  },
  {
    "ranking": 113,
    "title": "Vanderbilt University",
    "location": "United States",
    "numberStudents": "12,139",
    "genderRatio": "54 : 46",
    "percIntlStudents": "15%",
    "studentsStaffRatio": "3.0",
    "_geoloc": {
      "lat": 36.1447034,
      "lng": -86.8026551
    }
  },
  {
    "ranking": 114,
    "title": "University of Bonn",
    "location": "Germany",
    "numberStudents": "37,439",
    "genderRatio": "56 : 44",
    "percIntlStudents": "13%",
    "studentsStaffRatio": "70.2",
    "_geoloc": {
      "lat": 50.7267806,
      "lng": 7.0864528
    }
  },
  {
    "ranking": 115,
    "title": "Penn State (Main campus)",
    "location": "United States",
    "numberStudents": "46,682",
    "genderRatio": "47 : 53",
    "percIntlStudents": "15%",
    "studentsStaffRatio": "11.0",
    "_geoloc": {
      "lat": 40.7982133,
      "lng": -77.8599084
    }
  },
  {
    "ranking": 116,
    "title": "Vrije Universiteit Amsterdam",
    "location": "Netherlands",
    "numberStudents": "25,443",
    "genderRatio": "58 : 42",
    "percIntlStudents": "13%",
    "studentsStaffRatio": "18.0",
    "_geoloc": {
      "lat": 52.3337568,
      "lng": 4.8657199
    }
  },
  {
    "ranking": 117,
    "title": "University of Virginia (Main campus)",
    "location": "United States",
    "numberStudents": "24,879",
    "genderRatio": "52 : 48",
    "percIntlStudents": "13%",
    "studentsStaffRatio": "9.0",
    "_geoloc": {
      "lat": 38.0335529,
      "lng": -78.5079772
    }
  },
  {
    "ranking": 118,
    "title": "University of Adelaide",
    "location": "Australia",
    "numberStudents": "21,054",
    "genderRatio": "49 : 51",
    "percIntlStudents": "29%",
    "studentsStaffRatio": "30.7",
    "_geoloc": {
      "lat": -34.9284989,
      "lng": 138.6007456
    }
  },
  {
    "ranking": 119,
    "title": "Free University of Berlin",
    "location": "Germany",
    "numberStudents": "36,380",
    "genderRatio": "59 : 41",
    "percIntlStudents": "22%",
    "studentsStaffRatio": "59.2",
    "_geoloc": {
      "lat": 52.4543245,
      "lng": 13.2934768
    }
  },
  {
    "ranking": 120,
    "title": "Georgetown University",
    "location": "United States",
    "numberStudents": "16,451",
    "genderRatio": "55 : 45",
    "percIntlStudents": "19%",
    "studentsStaffRatio": "8.5",
    "_geoloc": {
      "lat": 38.9076089,
      "lng": -77.07225849999999
    }
  },
  {
    "ranking": 121,
    "title": "Case Western Reserve University",
    "location": "United States",
    "numberStudents": "10,774",
    "genderRatio": "50 : 50",
    "percIntlStudents": "23%",
    "studentsStaffRatio": "9.1",
    "_geoloc": {
      "lat": 41.5043413,
      "lng": -81.6083838
    }
  },
  {
    "ranking": 122,
    "title": "Maastricht University",
    "location": "Netherlands",
    "numberStudents": "17,326",
    "genderRatio": "60 : 40",
    "percIntlStudents": "54%",
    "studentsStaffRatio": "18.4",
    "_geoloc": {
      "lat": 50.8469602,
      "lng": 5.6879801
    }
  },
  {
    "ranking": 123,
    "title": "University of Sheffield",
    "location": "United Kingdom",
    "numberStudents": "26,765",
    "genderRatio": "52 : 48",
    "percIntlStudents": "35%",
    "studentsStaffRatio": "15.5",
    "_geoloc": {
      "lat": 53.3813502,
      "lng": -1.4884229
    }
  },
  {
    "ranking": 124,
    "title": "University of Arizona",
    "location": "United States",
    "numberStudents": "39,635",
    "genderRatio": "52 : 48",
    "percIntlStudents": "9%",
    "studentsStaffRatio": "18.0",
    "_geoloc": {
      "lat": 32.2318851,
      "lng": -110.9501094
    }
  },
  {
    "ranking": 125,
    "title": "Rice University",
    "location": "United States",
    "numberStudents": "6,805",
    "genderRatio": "42 : 58",
    "percIntlStudents": "28%",
    "studentsStaffRatio": "9.2",
    "_geoloc": {
      "lat": 29.7173941,
      "lng": -95.40183119999999
    }
  },
  {
    "ranking": 126,
    "title": "City University of Hong Kong",
    "location": "Hong Kong",
    "numberStudents": "9,510",
    "genderRatio": "54 : 46",
    "percIntlStudents": "51%",
    "studentsStaffRatio": "10.8",
    "_geoloc": {
      "lat": 22.3370342,
      "lng": 114.17272
    }
  },
  {
    "ranking": 127,
    "title": "University of Oslo",
    "location": "Norway",
    "numberStudents": "20,737",
    "genderRatio": "62 : 38",
    "percIntlStudents": "17%",
    "studentsStaffRatio": "12.2",
    "_geoloc": {
      "lat": 59.9404992,
      "lng": 10.7215296
    }
  },
  {
    "ranking": 128,
    "title": "University of Southampton",
    "location": "United Kingdom",
    "numberStudents": "23,498",
    "genderRatio": "53 : 47",
    "percIntlStudents": "35%",
    "studentsStaffRatio": "14.3",
    "_geoloc": {
      "lat": 50.935742,
      "lng": -1.3966381
    }
  },
  {
    "ranking": 129,
    "title": "Hong Kong Polytechnic University",
    "location": "Hong Kong",
    "numberStudents": "22,778",
    "genderRatio": "51 : 49",
    "percIntlStudents": "27%",
    "studentsStaffRatio": "25.4",
    "_geoloc": {
      "lat": 22.3042407,
      "lng": 114.1798118
    }
  },
  {
    "ranking": 130,
    "title": "University of Göttingen",
    "location": "Germany",
    "numberStudents": "30,894",
    "genderRatio": "51 : 49",
    "percIntlStudents": "13%",
    "studentsStaffRatio": "28.0",
    "_geoloc": {
      "lat": 51.54149460000001,
      "lng": 9.9375952
    }
  },
  {
    "ranking": 131,
    "title": "University of Alberta",
    "location": "Canada",
    "numberStudents": "32,846",
    "genderRatio": "55 : 45",
    "percIntlStudents": "27%",
    "studentsStaffRatio": "21.5",
    "_geoloc": {
      "lat": 53.5232189,
      "lng": -113.5263186
    }
  },
  {
    "ranking": 132,
    "title": "University of Colorado Boulder",
    "location": "United States",
    "numberStudents": "34,481",
    "genderRatio": "44 : 56",
    "percIntlStudents": "11%",
    "studentsStaffRatio": "16.1",
    "_geoloc": {
      "lat": 40.00758099999999,
      "lng": -105.2659417
    }
  },
  {
    "ranking": 133,
    "title": "University of Pittsburgh-Pittsburgh campus",
    "location": "United States",
    "numberStudents": "26,761",
    "genderRatio": "53 : 47",
    "percIntlStudents": "11%",
    "studentsStaffRatio": "5.7",
    "_geoloc": {
      "lat": 40.4443533,
      "lng": -79.960835
    }
  },
  {
    "ranking": 134,
    "title": "University of York",
    "location": "United Kingdom",
    "numberStudents": "16,881",
    "genderRatio": "57 : 43",
    "percIntlStudents": "25%",
    "studentsStaffRatio": "15.0",
    "_geoloc": {
      "lat": 53.9461089,
      "lng": -1.0517718
    }
  },
  {
    "ranking": 135,
    "title": "University of Hamburg",
    "location": "Germany",
    "numberStudents": "30,649",
    "genderRatio": "57 : 43",
    "percIntlStudents": "12%",
    "studentsStaffRatio": "58.7",
    "_geoloc": {
      "lat": 53.5642276,
      "lng": 9.9950229
    }
  },
  {
    "ranking": 136,
    "title": "Lancaster University",
    "location": "United Kingdom",
    "numberStudents": "13,047",
    "genderRatio": "51 : 49",
    "percIntlStudents": "37%",
    "studentsStaffRatio": "12.4",
    "_geoloc": {
      "lat": 54.0103942,
      "lng": -2.7877294
    }
  },
  {
    "ranking": 137,
    "title": "University of Paris",
    "location": "France",
    "numberStudents": "63,219",
    "genderRatio": "64 : 36",
    "percIntlStudents": "18%",
    "studentsStaffRatio": "17.7",
    "_geoloc": {
      "lat": 48.856614,
      "lng": 2.3522219
    }
  },
  {
    "ranking": 138,
    "title": "Radboud University Nijmegen",
    "location": "Netherlands",
    "numberStudents": "20,752",
    "genderRatio": "57 : 43",
    "percIntlStudents": "16%",
    "studentsStaffRatio": "17.3",
    "_geoloc": {
      "lat": 51.8220189,
      "lng": 5.863818699999999
    }
  },
  {
    "ranking": 139,
    "title": "The University of Western Australia",
    "location": "Australia",
    "numberStudents": "18,253",
    "genderRatio": "48 : 52",
    "percIntlStudents": "29%",
    "studentsStaffRatio": "22.5",
    "_geoloc": {
      "lat": -31.9789061,
      "lng": 115.8180721
    }
  },
  {
    "ranking": 140,
    "title": "Indiana University",
    "location": "United States",
    "numberStudents": "67,054",
    "genderRatio": "51 : 49",
    "percIntlStudents": "15%",
    "studentsStaffRatio": "15.0",
    "_geoloc": {
      "lat": 39.1682449,
      "lng": -86.52300729999999
    }
  },
  {
    "ranking": 141,
    "title": "University of Mannheim",
    "location": "Germany",
    "numberStudents": "10,593",
    "genderRatio": "n/a",
    "percIntlStudents": "18%",
    "studentsStaffRatio": "78.3",
    "_geoloc": {
      "lat": 49.48371059999999,
      "lng": 8.4622333
    }
  },
  {
    "ranking": 142,
    "title": "Technical University of Berlin",
    "location": "Germany",
    "numberStudents": "22,695",
    "genderRatio": "34 : 66",
    "percIntlStudents": "26%",
    "studentsStaffRatio": "60.8",
    "_geoloc": {
      "lat": 52.5125322,
      "lng": 13.3269446
    }
  },
  {
    "ranking": 143,
    "title": "Ulm University",
    "location": "Germany",
    "numberStudents": "10,503",
    "genderRatio": "49 : 51",
    "percIntlStudents": "13%",
    "studentsStaffRatio": "28.4",
    "_geoloc": {
      "lat": 48.4234467,
      "lng": 9.9552135
    }
  },
  {
    "ranking": 144,
    "title": "University of Würzburg",
    "location": "Germany",
    "numberStudents": "23,887",
    "genderRatio": "56 : 44",
    "percIntlStudents": "10%",
    "studentsStaffRatio": "38.2",
    "_geoloc": {
      "lat": 49.7881814,
      "lng": 9.93526
    }
  },
  {
    "ranking": 145,
    "title": "University of Cologne",
    "location": "Germany",
    "numberStudents": "34,630",
    "genderRatio": "n/a",
    "percIntlStudents": "18%",
    "studentsStaffRatio": "35.0",
    "_geoloc": {
      "lat": 50.9282632,
      "lng": 6.9293608
    }
  },
  {
    "ranking": 146,
    "title": "University of Ottawa",
    "location": "Canada",
    "numberStudents": "35,140",
    "genderRatio": "58 : 42",
    "percIntlStudents": "20%",
    "studentsStaffRatio": "24.6",
    "_geoloc": {
      "lat": 45.42310639999999,
      "lng": -75.68313289999999
    }
  },
  {
    "ranking": 147,
    "title": "University of Auckland",
    "location": "New Zealand",
    "numberStudents": "32,596",
    "genderRatio": "56 : 44",
    "percIntlStudents": "31%",
    "studentsStaffRatio": "22.6",
    "_geoloc": {
      "lat": -36.85088270000001,
      "lng": 174.7644881
    }
  },
  {
    "ranking": 148,
    "title": "University of Rochester",
    "location": "United States",
    "numberStudents": "10,017",
    "genderRatio": "49 : 51",
    "percIntlStudents": "34%",
    "studentsStaffRatio": "4.9",
    "_geoloc": {
      "lat": 43.1305531,
      "lng": -77.6260033
    }
  },
  {
    "ranking": 149,
    "title": "Durham University",
    "location": "United Kingdom",
    "numberStudents": "17,090",
    "genderRatio": "55 : 45",
    "percIntlStudents": "31%",
    "studentsStaffRatio": "15.2",
    "_geoloc": {
      "lat": 54.7649859,
      "lng": -1.5782029
    }
  },
  {
    "ranking": 150,
    "title": "University of Geneva",
    "location": "Switzerland",
    "numberStudents": "17,271",
    "genderRatio": "61 : 39",
    "percIntlStudents": "38%",
    "studentsStaffRatio": "16.0",
    "_geoloc": {
      "lat": 46.199444,
      "lng": 6.1451157
    }
  },
  {
    "ranking": 151,
    "title": "Pohang University of Science and Technology (POSTECH)",
    "location": "South Korea",
    "numberStudents": "3,034",
    "genderRatio": "24 : 76",
    "percIntlStudents": "3%",
    "studentsStaffRatio": "9.7",
    "_geoloc": {
      "lat": 36.0138857,
      "lng": 129.3231836
    }
  },
  {
    "ranking": 152,
    "title": "University of Florida",
    "location": "United States",
    "numberStudents": "46,632",
    "genderRatio": "56 : 44",
    "percIntlStudents": "9%",
    "studentsStaffRatio": "16.1",
    "_geoloc": {
      "lat": 29.644591,
      "lng": -82.35348400000001
    }
  },
  {
    "ranking": 153,
    "title": "Pompeu Fabra University",
    "location": "Spain",
    "numberStudents": "11,914",
    "genderRatio": "60 : 40",
    "percIntlStudents": "13%",
    "studentsStaffRatio": "22.9",
    "_geoloc": {
      "lat": 41.37896689999999,
      "lng": 2.1797944
    }
  },
  {
    "ranking": 154,
    "title": "TU Dresden",
    "location": "Germany",
    "numberStudents": "31,103",
    "genderRatio": "43 : 57",
    "percIntlStudents": "15%",
    "studentsStaffRatio": "32.9",
    "_geoloc": {
      "lat": 51.0285861,
      "lng": 13.7313505
    }
  },
  {
    "ranking": 155,
    "title": "University of Cape Town",
    "location": "South Africa",
    "numberStudents": "21,647",
    "genderRatio": "54 : 46",
    "percIntlStudents": "17%",
    "studentsStaffRatio": "11.7",
    "_geoloc": {
      "lat": -33.957652,
      "lng": 18.4611991
    }
  },
  {
    "ranking": 156,
    "title": "Trinity College Dublin",
    "location": "Ireland",
    "numberStudents": "17,154",
    "genderRatio": "59 : 41",
    "percIntlStudents": "32%",
    "studentsStaffRatio": "21.4",
    "_geoloc": {
      "lat": 53.3437935,
      "lng": -6.254571599999999
    }
  },
  {
    "ranking": 157,
    "title": "Tufts University",
    "location": "United States",
    "numberStudents": "11,024",
    "genderRatio": "55 : 45",
    "percIntlStudents": "16%",
    "studentsStaffRatio": "9.7",
    "_geoloc": {
      "lat": 42.4085371,
      "lng": -71.1182729
    }
  },
  {
    "ranking": 158,
    "title": "Bielefeld University",
    "location": "Germany",
    "numberStudents": "24,890",
    "genderRatio": "57 : 43",
    "percIntlStudents": "8%",
    "studentsStaffRatio": "71.5",
    "_geoloc": {
      "lat": 52.0367238,
      "lng": 8.4952413
    }
  },
  {
    "ranking": 159,
    "title": "University of Nottingham",
    "location": "United Kingdom",
    "numberStudents": "30,798",
    "genderRatio": "54 : 46",
    "percIntlStudents": "29%",
    "studentsStaffRatio": "15.0",
    "_geoloc": {
      "lat": 52.9387922,
      "lng": -1.1981057
    }
  },
  {
    "ranking": 160,
    "title": "University of Leeds",
    "location": "United Kingdom",
    "numberStudents": "31,461",
    "genderRatio": "60 : 40",
    "percIntlStudents": "30%",
    "studentsStaffRatio": "14.3",
    "_geoloc": {
      "lat": 53.8066815,
      "lng": -1.5550328
    }
  },
  {
    "ranking": 161,
    "title": "University of Sussex",
    "location": "United Kingdom",
    "numberStudents": "16,259",
    "genderRatio": "55 : 45",
    "percIntlStudents": "37%",
    "studentsStaffRatio": "15.8",
    "_geoloc": {
      "lat": 50.8677123,
      "lng": -0.0875492
    }
  },
  {
    "ranking": 162,
    "title": "University of Technology Sydney",
    "location": "Australia",
    "numberStudents": "26,529",
    "genderRatio": "51 : 49",
    "percIntlStudents": "36%",
    "studentsStaffRatio": "41.7",
    "_geoloc": {
      "lat": -33.8836537,
      "lng": 151.2006119
    }
  },
  {
    "ranking": 163,
    "title": "University of Liverpool",
    "location": "United Kingdom",
    "numberStudents": "25,168",
    "genderRatio": "55 : 45",
    "percIntlStudents": "33%",
    "studentsStaffRatio": "14.6",
    "_geoloc": {
      "lat": 53.40478239999999,
      "lng": -2.965299
    }
  },
  {
    "ranking": 164,
    "title": "Université Catholique de Louvain",
    "location": "Belgium",
    "numberStudents": "26,462",
    "genderRatio": "53 : 47",
    "percIntlStudents": "20%",
    "studentsStaffRatio": "39.7",
    "_geoloc": {
      "lat": 50.6696767,
      "lng": 4.615875
    }
  },
  {
    "ranking": 165,
    "title": "University of Vienna",
    "location": "Austria",
    "numberStudents": "32,650",
    "genderRatio": "65 : 35",
    "percIntlStudents": "28%",
    "studentsStaffRatio": "38.5",
    "_geoloc": {
      "lat": 48.21318549999999,
      "lng": 16.3600504
    }
  },
  {
    "ranking": 166,
    "title": "Rutgers, the State University of New Jersey",
    "location": "United States",
    "numberStudents": "44,264",
    "genderRatio": "52 : 48",
    "percIntlStudents": "17%",
    "studentsStaffRatio": "11.0",
    "_geoloc": {
      "lat": 40.5008405,
      "lng": -74.44741739999999
    }
  },
  {
    "ranking": 167,
    "title": "University of Bologna",
    "location": "Italy",
    "numberStudents": "67,298",
    "genderRatio": "56 : 44",
    "percIntlStudents": "12%",
    "studentsStaffRatio": "24.4",
    "_geoloc": {
      "lat": 44.4962318,
      "lng": 11.354157
    }
  },
  {
    "ranking": 168,
    "title": "Korea University",
    "location": "South Korea",
    "numberStudents": "22,666",
    "genderRatio": "n/a",
    "percIntlStudents": "22%",
    "studentsStaffRatio": "16.6",
    "_geoloc": {
      "lat": 37.58938759999999,
      "lng": 127.0324773
    }
  },
  {
    "ranking": 169,
    "title": "University of Alabama at Birmingham",
    "location": "United States",
    "numberStudents": "18,211",
    "genderRatio": "63 : 37",
    "percIntlStudents": "6%",
    "studentsStaffRatio": "17.3",
    "_geoloc": {
      "lat": 33.5020323,
      "lng": -86.80574949999999
    }
  },
  {
    "ranking": 170,
    "title": "University of Antwerp",
    "location": "Belgium",
    "numberStudents": "15,272",
    "genderRatio": "55 : 45",
    "percIntlStudents": "17%",
    "studentsStaffRatio": "31.2",
    "_geoloc": {
      "lat": 51.2228074,
      "lng": 4.410239
    }
  },
  {
    "ranking": 171,
    "title": "University of Leicester",
    "location": "United Kingdom",
    "numberStudents": "15,551",
    "genderRatio": "53 : 47",
    "percIntlStudents": "32%",
    "studentsStaffRatio": "14.7",
    "_geoloc": {
      "lat": 52.6211393,
      "lng": -1.1246325
    }
  },
  {
    "ranking": 172,
    "title": "University of Notre Dame",
    "location": "United States",
    "numberStudents": "12,149",
    "genderRatio": "46 : 54",
    "percIntlStudents": "12%",
    "studentsStaffRatio": "10.9",
    "_geoloc": {
      "lat": 41.7055716,
      "lng": -86.2353388
    }
  },
  {
    "ranking": 173,
    "title": "Sant’Anna School of Advanced Studies – Pisa",
    "location": "Italy",
    "numberStudents": "661",
    "genderRatio": "36 : 64",
    "percIntlStudents": "20%",
    "studentsStaffRatio": "10.0",
    "_geoloc": {
      "lat": 43.7209661,
      "lng": 10.4027859
    }
  },
  {
    "ranking": 174,
    "title": "University of Exeter",
    "location": "United Kingdom",
    "numberStudents": "22,007",
    "genderRatio": "54 : 46",
    "percIntlStudents": "28%",
    "studentsStaffRatio": "17.0",
    "_geoloc": {
      "lat": 50.7371369,
      "lng": -3.5351475
    }
  },
  {
    "ranking": 175,
    "title": "Lomonosov Moscow State University",
    "location": "Russian Federation",
    "numberStudents": "28,525",
    "genderRatio": "52 : 48",
    "percIntlStudents": "32%",
    "studentsStaffRatio": "8.4",
    "_geoloc": {
      "lat": 55.70393490000001,
      "lng": 37.5286695
    }
  },
  {
    "ranking": 176,
    "title": "Northeastern University",
    "location": "United States",
    "numberStudents": "20,711",
    "genderRatio": "48 : 52",
    "percIntlStudents": "36%",
    "studentsStaffRatio": "14.1",
    "_geoloc": {
      "lat": 42.339904,
      "lng": -71.0898892
    }
  },
  {
    "ranking": 177,
    "title": "Ulsan National Institute of Science and Technology (UNIST)",
    "location": "South Korea",
    "numberStudents": "3,983",
    "genderRatio": "27 : 73",
    "percIntlStudents": "8%",
    "studentsStaffRatio": "14.3",
    "_geoloc": {
      "lat": 35.5734176,
      "lng": 129.189629
    }
  },
  {
    "ranking": 178,
    "title": "University of Aberdeen",
    "location": "United Kingdom",
    "numberStudents": "12,863",
    "genderRatio": "57 : 43",
    "percIntlStudents": "42%",
    "studentsStaffRatio": "16.6",
    "_geoloc": {
      "lat": 57.16475999999999,
      "lng": -2.1015257
    }
  },
  {
    "ranking": 179,
    "title": "Newcastle University",
    "location": "United Kingdom",
    "numberStudents": "24,089",
    "genderRatio": "51 : 49",
    "percIntlStudents": "27%",
    "studentsStaffRatio": "14.6",
    "_geoloc": {
      "lat": 54.9791871,
      "lng": -1.6146608
    }
  },
  {
    "ranking": 180,
    "title": "Paris-Saclay University",
    "location": "France",
    "numberStudents": "28,618",
    "genderRatio": "55 : 45",
    "percIntlStudents": "16%",
    "studentsStaffRatio": "14.6",
    "_geoloc": {
      "lat": 48.7098718,
      "lng": 2.1666978
    }
  },
  {
    "ranking": 181,
    "title": "Scuola Normale Superiore di Pisa",
    "location": "Italy",
    "numberStudents": "557",
    "genderRatio": "29 : 71",
    "percIntlStudents": "11%",
    "studentsStaffRatio": "6.7",
    "_geoloc": {
      "lat": 43.719601,
      "lng": 10.40033
    }
  },
  {
    "ranking": 182,
    "title": "Autonomous University of Barcelona",
    "location": "Spain",
    "numberStudents": "31,284",
    "genderRatio": "59 : 41",
    "percIntlStudents": "17%",
    "studentsStaffRatio": "12.5",
    "_geoloc": {
      "lat": 41.5021421,
      "lng": 2.1038536
    }
  },
  {
    "ranking": 183,
    "title": "Stockholm University",
    "location": "Sweden",
    "numberStudents": "27,200",
    "genderRatio": "n/a",
    "percIntlStudents": "10%",
    "studentsStaffRatio": "19.1",
    "_geoloc": {
      "lat": 59.3652343,
      "lng": 18.0550487
    }
  },
  {
    "ranking": 184,
    "title": "Arizona State University (Tempe)",
    "location": "United States",
    "numberStudents": "45,827",
    "genderRatio": "43 : 57",
    "percIntlStudents": "20%",
    "studentsStaffRatio": "19.7",
    "_geoloc": {
      "lat": 33.4242399,
      "lng": -111.9280527
    }
  },
  {
    "ranking": 185,
    "title": "University of Canberra",
    "location": "Australia",
    "numberStudents": "10,304",
    "genderRatio": "n/a",
    "percIntlStudents": "35%",
    "studentsStaffRatio": "37.4",
    "_geoloc": {
      "lat": -35.2381421,
      "lng": 149.0838384
    }
  },
  {
    "ranking": 186,
    "title": "Queensland University of Technology",
    "location": "Australia",
    "numberStudents": "35,555",
    "genderRatio": "53 : 47",
    "percIntlStudents": "17%",
    "studentsStaffRatio": "42.0",
    "_geoloc": {
      "lat": -27.4773845,
      "lng": 153.0281982
    }
  },
  {
    "ranking": 187,
    "title": "Eindhoven University of Technology",
    "location": "Netherlands",
    "numberStudents": "9,469",
    "genderRatio": "n/a",
    "percIntlStudents": "23%",
    "studentsStaffRatio": "21.3",
    "_geoloc": {
      "lat": 51.44860980000001,
      "lng": 5.4907148
    }
  },
  {
    "ranking": 188,
    "title": "George Washington University",
    "location": "United States",
    "numberStudents": "23,788",
    "genderRatio": "60 : 40",
    "percIntlStudents": "17%",
    "studentsStaffRatio": "13.4",
    "_geoloc": {
      "lat": 38.8997145,
      "lng": -77.0485992
    }
  },
  {
    "ranking": 189,
    "title": "Technical University of Denmark",
    "location": "Denmark",
    "numberStudents": "9,412",
    "genderRatio": "31 : 69",
    "percIntlStudents": "25%",
    "studentsStaffRatio": "6.7",
    "_geoloc": {
      "lat": 55.7855742,
      "lng": 12.521381
    }
  },
  {
    "ranking": 190,
    "title": "Yonsei University (Seoul campus)",
    "location": "South Korea",
    "numberStudents": "17,745",
    "genderRatio": "48 : 52",
    "percIntlStudents": "22%",
    "studentsStaffRatio": "14.7",
    "_geoloc": {
      "lat": 37.565784,
      "lng": 126.938572
    }
  },
  {
    "ranking": 191,
    "title": "Cardiff University",
    "location": "United Kingdom",
    "numberStudents": "25,898",
    "genderRatio": "59 : 41",
    "percIntlStudents": "28%",
    "studentsStaffRatio": "14.1",
    "_geoloc": {
      "lat": 51.48662710000001,
      "lng": -3.1788641
    }
  },
  {
    "ranking": 192,
    "title": "University of Gothenburg",
    "location": "Sweden",
    "numberStudents": "19,616",
    "genderRatio": "n/a",
    "percIntlStudents": "13%",
    "studentsStaffRatio": "9.8",
    "_geoloc": {
      "lat": 57.6983855,
      "lng": 11.9715823
    }
  },
  {
    "ranking": 193,
    "title": "University of Lausanne",
    "location": "Switzerland",
    "numberStudents": "12,685",
    "genderRatio": "n/a",
    "percIntlStudents": "24%",
    "studentsStaffRatio": "8.8",
    "_geoloc": {
      "lat": 46.5210895,
      "lng": 6.5801606
    }
  },
  {
    "ranking": 194,
    "title": "Tel Aviv University",
    "location": "Israel",
    "numberStudents": "22,635",
    "genderRatio": "56 : 44",
    "percIntlStudents": "7%",
    "studentsStaffRatio": "22.3",
    "_geoloc": {
      "lat": 32.1133141,
      "lng": 34.8043877
    }
  },
  {
    "ranking": 195,
    "title": "Macquarie University",
    "location": "Australia",
    "numberStudents": "29,835",
    "genderRatio": "53 : 47",
    "percIntlStudents": "29%",
    "studentsStaffRatio": "65.5"
  },
  {
    "ranking": 196,
    "title": "University of Münster",
    "location": "Germany",
    "numberStudents": "44,580",
    "genderRatio": "n/a",
    "percIntlStudents": "8%",
    "studentsStaffRatio": "42.9",
    "_geoloc": {
      "lat": 51.963581,
      "lng": 7.6132548
    }
  },
  {
    "ranking": 197,
    "title": "Texas A&M University",
    "location": "United States",
    "numberStudents": "62,070",
    "genderRatio": "47 : 53",
    "percIntlStudents": "8%",
    "studentsStaffRatio": "24.4",
    "_geoloc": {
      "lat": 30.6186806,
      "lng": -96.33646549999999
    }
  },
  {
    "ranking": 198,
    "title": "University of Barcelona",
    "location": "Spain",
    "numberStudents": "45,494",
    "genderRatio": "62 : 38",
    "percIntlStudents": "11%",
    "studentsStaffRatio": "15.0",
    "_geoloc": {
      "lat": 41.38667239999999,
      "lng": 2.1638661
    }
  },
  {
    "ranking": 199,
    "title": "University of Erlangen-Nuremberg",
    "location": "Germany",
    "numberStudents": "38,052",
    "genderRatio": "49 : 51",
    "percIntlStudents": "12%",
    "studentsStaffRatio": "57.3",
    "_geoloc": {
      "lat": 49.5979117,
      "lng": 11.0045437
    }
  },
  {
    "ranking": 200,
    "title": "University of Calgary",
    "location": "Canada",
    "numberStudents": "31,863",
    "genderRatio": "54 : 46",
    "percIntlStudents": "21%",
    "studentsStaffRatio": "17.6",
    "_geoloc": {
      "lat": 51.04473309999999,
      "lng": -114.0718831
    }
  },
  {
    "ranking": 201,
    "title": "University of East Anglia",
    "location": "United Kingdom",
    "numberStudents": "15,757",
    "genderRatio": "59 : 41",
    "percIntlStudents": "27%",
    "studentsStaffRatio": "13.8",
    "_geoloc": {
      "lat": 52.6220523,
      "lng": 1.2410838
    }
  },
  {
    "ranking": 202,
    "title": "Queen’s University Belfast",
    "location": "United Kingdom",
    "numberStudents": "18,438",
    "genderRatio": "56 : 44",
    "percIntlStudents": "36%",
    "studentsStaffRatio": "17.2",
    "_geoloc": {
      "lat": 54.5844087,
      "lng": -5.9340494
    }
  },
  {
    "ranking": 203,
    "title": "Aalborg University",
    "location": "Denmark",
    "numberStudents": "16,227",
    "genderRatio": "n/a",
    "percIntlStudents": "14%",
    "studentsStaffRatio": "13.4",
    "_geoloc": {
      "lat": 57.0139858,
      "lng": 9.9845553
    }
  },
  {
    "ranking": 204,
    "title": "Aalto University",
    "location": "Finland",
    "numberStudents": "12,506",
    "genderRatio": "37 : 63",
    "percIntlStudents": "24%",
    "studentsStaffRatio": "18.6",
    "_geoloc": {
      "lat": 60.1866693,
      "lng": 24.827682
    }
  },
  {
    "ranking": 205,
    "title": "University of Bath",
    "location": "United Kingdom",
    "numberStudents": "14,410",
    "genderRatio": "46 : 54",
    "percIntlStudents": "33%",
    "studentsStaffRatio": "16.2",
    "_geoloc": {
      "lat": 51.3782228,
      "lng": -2.3263987
    }
  },
  {
    "ranking": 206,
    "title": "University of Bergen",
    "location": "Norway",
    "numberStudents": "14,297",
    "genderRatio": "60 : 40",
    "percIntlStudents": "13%",
    "studentsStaffRatio": "12.4",
    "_geoloc": {
      "lat": 60.3878586,
      "lng": 5.3217549
    }
  },
  {
    "ranking": 207,
    "title": "Brandeis University",
    "location": "United States",
    "numberStudents": "5,346",
    "genderRatio": "58 : 42",
    "percIntlStudents": "27%",
    "studentsStaffRatio": "12.7",
    "_geoloc": {
      "lat": 42.36535689999999,
      "lng": -71.2586441
    }
  },
  {
    "ranking": 208,
    "title": "University of California, Santa Cruz",
    "location": "United States",
    "numberStudents": "19,457",
    "genderRatio": "49 : 51",
    "percIntlStudents": "12%",
    "studentsStaffRatio": "23.8",
    "_geoloc": {
      "lat": 36.9905322,
      "lng": -122.0584354
    }
  },
  {
    "ranking": 209,
    "title": "Chalmers University of Technology",
    "location": "Sweden",
    "numberStudents": "8,325",
    "genderRatio": "32 : 68",
    "percIntlStudents": "17%",
    "studentsStaffRatio": "11.9",
    "_geoloc": {
      "lat": 57.6898004,
      "lng": 11.9741616
    }
  },
  {
    "ranking": 210,
    "title": "Copenhagen Business School",
    "location": "Denmark",
    "numberStudents": "16,312",
    "genderRatio": "48 : 52",
    "percIntlStudents": "25%",
    "studentsStaffRatio": "30.7",
    "_geoloc": {
      "lat": 55.68156519999999,
      "lng": 12.5296944
    }
  },
  {
    "ranking": 211,
    "title": "Curtin University",
    "location": "Australia",
    "numberStudents": "30,130",
    "genderRatio": "52 : 48",
    "percIntlStudents": "32%",
    "studentsStaffRatio": "20.5",
    "_geoloc": {
      "lat": -32.0054649,
      "lng": 115.8919818
    }
  },
  {
    "ranking": 212,
    "title": "University of Duisburg-Essen",
    "location": "Germany",
    "numberStudents": "42,744",
    "genderRatio": "48 : 52",
    "percIntlStudents": "19%",
    "studentsStaffRatio": "53.6",
    "_geoloc": {
      "lat": 51.42781300000001,
      "lng": 6.799585599999999
    }
  },
  {
    "ranking": 213,
    "title": "University of Dundee",
    "location": "United Kingdom",
    "numberStudents": "12,247",
    "genderRatio": "63 : 37",
    "percIntlStudents": "22%",
    "studentsStaffRatio": "17.5",
    "_geoloc": {
      "lat": 56.45824469999999,
      "lng": -2.9821428
    }
  },
  {
    "ranking": 214,
    "title": "Griffith University",
    "location": "Australia",
    "numberStudents": "33,645",
    "genderRatio": "58 : 42",
    "percIntlStudents": "17%",
    "studentsStaffRatio": "28.6",
    "_geoloc": {
      "lat": -27.553831,
      "lng": 153.057929
    }
  },
  {
    "ranking": 215,
    "title": "University of Hawai’i at Mānoa",
    "location": "United States",
    "numberStudents": "14,732",
    "genderRatio": "57 : 43",
    "percIntlStudents": "10%",
    "studentsStaffRatio": "10.6",
    "_geoloc": {
      "lat": 21.3008904,
      "lng": -157.8173481
    }
  },
  {
    "ranking": 216,
    "title": "Hebrew University of Jerusalem",
    "location": "Israel",
    "numberStudents": "16,105",
    "genderRatio": "57 : 43",
    "percIntlStudents": "5%",
    "studentsStaffRatio": "11.9",
    "_geoloc": {
      "lat": 31.7945578,
      "lng": 35.2414009
    }
  },
  {
    "ranking": 217,
    "title": "University of Hohenheim",
    "location": "Germany",
    "numberStudents": "9,235",
    "genderRatio": "57 : 43",
    "percIntlStudents": "15%",
    "studentsStaffRatio": "42.5",
    "_geoloc": {
      "lat": 48.7118737,
      "lng": 9.211751600000001
    }
  },
  {
    "ranking": 218,
    "title": "Howard University",
    "location": "United States",
    "numberStudents": "8,766",
    "genderRatio": "67 : 33",
    "percIntlStudents": "8%",
    "studentsStaffRatio": "9.3",
    "_geoloc": {
      "lat": 38.9226843,
      "lng": -77.0194377
    }
  },
  {
    "ranking": 219,
    "title": "University of Iowa",
    "location": "United States",
    "numberStudents": "29,406",
    "genderRatio": "53 : 47",
    "percIntlStudents": "10%",
    "studentsStaffRatio": "11.6",
    "_geoloc": {
      "lat": 41.66270780000001,
      "lng": -91.5549771
    }
  },
  {
    "ranking": 220,
    "title": "James Cook University",
    "location": "Australia",
    "numberStudents": "11,198",
    "genderRatio": "64 : 36",
    "percIntlStudents": "11%",
    "studentsStaffRatio": "21.0",
    "_geoloc": {
      "lat": -19.3258585,
      "lng": 146.7566603
    }
  },
  {
    "ranking": 221,
    "title": "Karlsruhe Institute of Technology",
    "location": "Germany",
    "numberStudents": "26,886",
    "genderRatio": "28 : 72",
    "percIntlStudents": "23%",
    "studentsStaffRatio": "27.9",
    "_geoloc": {
      "lat": 49.0119199,
      "lng": 8.4170303
    }
  },
  {
    "ranking": 222,
    "title": "King Abdulaziz University",
    "location": "Saudi Arabia",
    "numberStudents": "31,869",
    "genderRatio": "54 : 46",
    "percIntlStudents": "22%",
    "studentsStaffRatio": "7.8"
  },
  {
    "ranking": 223,
    "title": "KTH Royal Institute of Technology",
    "location": "Sweden",
    "numberStudents": "13,482",
    "genderRatio": "33 : 67",
    "percIntlStudents": "20%",
    "studentsStaffRatio": "16.5",
    "_geoloc": {
      "lat": 59.3498706,
      "lng": 18.0702566
    }
  },
  {
    "ranking": 224,
    "title": "La Trobe University",
    "location": "Australia",
    "numberStudents": "22,303",
    "genderRatio": "64 : 36",
    "percIntlStudents": "30%",
    "studentsStaffRatio": "31.9",
    "_geoloc": {
      "lat": -37.7207472,
      "lng": 145.047159
    }
  },
  {
    "ranking": 225,
    "title": "Université Libre de Bruxelles",
    "location": "Belgium",
    "numberStudents": "24,157",
    "genderRatio": "56 : 44",
    "percIntlStudents": "31%",
    "studentsStaffRatio": "42.1",
    "_geoloc": {
      "lat": 50.8132068,
      "lng": 4.3822222
    }
  },
  {
    "ranking": 226,
    "title": "University of Luxembourg",
    "location": "Luxembourg",
    "numberStudents": "4,858",
    "genderRatio": "52 : 48",
    "percIntlStudents": "51%",
    "studentsStaffRatio": "19.0",
    "_geoloc": {
      "lat": 49.50455299999999,
      "lng": 5.948429
    }
  },
  {
    "ranking": 227,
    "title": "University of Massachusetts",
    "location": "United States",
    "numberStudents": "61,958",
    "genderRatio": "48 : 52",
    "percIntlStudents": "15%",
    "studentsStaffRatio": "13.3",
    "_geoloc": {
      "lat": 42.3867598,
      "lng": -72.5300515
    }
  },
  {
    "ranking": 228,
    "title": "Medical University of Graz",
    "location": "Austria",
    "numberStudents": "3,541",
    "genderRatio": "52 : 48",
    "percIntlStudents": "25%",
    "studentsStaffRatio": "12.1",
    "_geoloc": {
      "lat": 47.0809538,
      "lng": 15.4699342
    }
  },
  {
    "ranking": 229,
    "title": "Medical University of Innsbruck",
    "location": "Austria",
    "numberStudents": "3,080",
    "genderRatio": "52 : 48",
    "percIntlStudents": "44%",
    "studentsStaffRatio": "11.0",
    "_geoloc": {
      "lat": 47.25967960000001,
      "lng": 11.386966
    }
  },
  {
    "ranking": 230,
    "title": "Medical University of Vienna",
    "location": "Austria",
    "numberStudents": "7,466",
    "genderRatio": "52 : 48",
    "percIntlStudents": "30%",
    "studentsStaffRatio": "8.8",
    "_geoloc": {
      "lat": 48.2196447,
      "lng": 16.3475329
    }
  },
  {
    "ranking": 231,
    "title": "University of Miami",
    "location": "United States",
    "numberStudents": "16,179",
    "genderRatio": "52 : 48",
    "percIntlStudents": "16%",
    "studentsStaffRatio": "6.3",
    "_geoloc": {
      "lat": 25.7616798,
      "lng": -80.1917902
    }
  },
  {
    "ranking": 232,
    "title": "Moscow Institute of Physics and Technology (MIPT)",
    "location": "Russian Federation",
    "numberStudents": "5,736",
    "genderRatio": "25 : 75",
    "percIntlStudents": "18%",
    "studentsStaffRatio": "11.4",
    "_geoloc": {
      "lat": 55.9297243,
      "lng": 37.5199434
    }
  },
  {
    "ranking": 233,
    "title": "University of Otago",
    "location": "New Zealand",
    "numberStudents": "18,571",
    "genderRatio": "59 : 41",
    "percIntlStudents": "21%",
    "studentsStaffRatio": "20.4",
    "_geoloc": {
      "lat": -45.8646835,
      "lng": 170.5144227
    }
  },
  {
    "ranking": 234,
    "title": "RCSI University of Medicine and Health Sciences",
    "location": "Ireland",
    "numberStudents": "2,355",
    "genderRatio": "n/a",
    "percIntlStudents": "65%",
    "studentsStaffRatio": "23.1",
    "_geoloc": {
      "lat": 53.3390883,
      "lng": -6.2628656
    }
  },
  {
    "ranking": 235,
    "title": "University of Reading",
    "location": "United Kingdom",
    "numberStudents": "15,207",
    "genderRatio": "57 : 43",
    "percIntlStudents": "31%",
    "studentsStaffRatio": "15.8",
    "_geoloc": {
      "lat": 51.4403085,
      "lng": -0.9420957999999999
    }
  },
  {
    "ranking": 236,
    "title": "St George’s, University of London",
    "location": "United Kingdom",
    "numberStudents": "3,425",
    "genderRatio": "62 : 38",
    "percIntlStudents": "21%",
    "studentsStaffRatio": "12.0",
    "_geoloc": {
      "lat": 51.4269516,
      "lng": -0.1738811
    }
  },
  {
    "ranking": 237,
    "title": "University of São Paulo",
    "location": "Brazil",
    "numberStudents": "82,961",
    "genderRatio": "47 : 53",
    "percIntlStudents": "4%",
    "studentsStaffRatio": "16.1",
    "_geoloc": {
      "lat": -23.5613991,
      "lng": -46.7307891
    }
  },
  {
    "ranking": 238,
    "title": "Sapienza University of Rome",
    "location": "Italy",
    "numberStudents": "77,496",
    "genderRatio": "57 : 43",
    "percIntlStudents": "7%",
    "studentsStaffRatio": "22.9",
    "_geoloc": {
      "lat": 41.9037626,
      "lng": 12.5144384
    }
  },
  {
    "ranking": 239,
    "title": "University of South Florida (Tampa)",
    "location": "United States",
    "numberStudents": "34,839",
    "genderRatio": "n/a",
    "percIntlStudents": "15%",
    "studentsStaffRatio": "19.2",
    "_geoloc": {
      "lat": 28.0587031,
      "lng": -82.41385389999999
    }
  },
  {
    "ranking": 240,
    "title": "University of St Andrews",
    "location": "United Kingdom",
    "numberStudents": "9,614",
    "genderRatio": "58 : 42",
    "percIntlStudents": "47%",
    "studentsStaffRatio": "12.8"
  },
  {
    "ranking": 241,
    "title": "Télécom Paris",
    "location": "France",
    "numberStudents": "897",
    "genderRatio": "19 : 81",
    "percIntlStudents": "43%",
    "studentsStaffRatio": "5.4",
    "_geoloc": {
      "lat": 48.7126658,
      "lng": 2.1997208
    }
  },
  {
    "ranking": 242,
    "title": "Tilburg University",
    "location": "Netherlands",
    "numberStudents": "9,380",
    "genderRatio": "47 : 53",
    "percIntlStudents": "16%",
    "studentsStaffRatio": "24.0",
    "_geoloc": {
      "lat": 51.5639249,
      "lng": 5.0434446
    }
  },
  {
    "ranking": 243,
    "title": "Tohoku University",
    "location": "Japan",
    "numberStudents": "17,752",
    "genderRatio": "27 : 73",
    "percIntlStudents": "12%",
    "studentsStaffRatio": "11.7",
    "_geoloc": {
      "lat": 38.253834,
      "lng": 140.874074
    }
  },
  {
    "ranking": 244,
    "title": "University of Twente",
    "location": "Netherlands",
    "numberStudents": "8,207",
    "genderRatio": "37 : 63",
    "percIntlStudents": "35%",
    "studentsStaffRatio": "14.4",
    "_geoloc": {
      "lat": 52.2396538,
      "lng": 6.84979
    }
  },
  {
    "ranking": 245,
    "title": "University of Utah",
    "location": "United States",
    "numberStudents": "30,692",
    "genderRatio": "48 : 52",
    "percIntlStudents": "8%",
    "studentsStaffRatio": "14.8",
    "_geoloc": {
      "lat": 40.7649368,
      "lng": -111.8421021
    }
  },
  {
    "ranking": 246,
    "title": "Virginia Polytechnic Institute and State University",
    "location": "United States",
    "numberStudents": "34,155",
    "genderRatio": "43 : 57",
    "percIntlStudents": "14%",
    "studentsStaffRatio": "18.4",
    "_geoloc": {
      "lat": 37.22838429999999,
      "lng": -80.42341669999999
    }
  },
  {
    "ranking": 247,
    "title": "University of Waterloo",
    "location": "Canada",
    "numberStudents": "32,804",
    "genderRatio": "47 : 53",
    "percIntlStudents": "21%",
    "studentsStaffRatio": "22.8",
    "_geoloc": {
      "lat": 43.4722854,
      "lng": -80.5448576
    }
  },
  {
    "ranking": 248,
    "title": "Western University",
    "location": "Canada",
    "numberStudents": "29,865",
    "genderRatio": "56 : 44",
    "percIntlStudents": "18%",
    "studentsStaffRatio": "22.8",
    "_geoloc": {
      "lat": 43.0095971,
      "lng": -81.2737336
    }
  },
  {
    "ranking": 249,
    "title": "University of the Witwatersrand",
    "location": "South Africa",
    "numberStudents": "27,839",
    "genderRatio": "55 : 45",
    "percIntlStudents": "7%",
    "studentsStaffRatio": "25.8",
    "_geoloc": {
      "lat": -26.1928836,
      "lng": 28.0304733
    }
  },
  {
    "ranking": 250,
    "title": "University of Wollongong",
    "location": "Australia",
    "numberStudents": "18,517",
    "genderRatio": "52 : 48",
    "percIntlStudents": "29%",
    "studentsStaffRatio": "30.5",
    "_geoloc": {
      "lat": -34.4053396,
      "lng": 150.8778394
    }
  },
  {
    "ranking": 251,
    "title": "Alfaisal University",
    "location": "Saudi Arabia",
    "numberStudents": "2,640",
    "genderRatio": "60 : 40",
    "percIntlStudents": "34%",
    "studentsStaffRatio": "10.2",
    "_geoloc": {
      "lat": 24.6645919,
      "lng": 46.67701100000001
    }
  },
  {
    "ranking": 252,
    "title": "Auckland University of Technology",
    "location": "New Zealand",
    "numberStudents": "17,909",
    "genderRatio": "59 : 41",
    "percIntlStudents": "49%",
    "studentsStaffRatio": "17.1",
    "_geoloc": {
      "lat": -36.8536098,
      "lng": 174.7664805
    }
  },
  {
    "ranking": 253,
    "title": "Australian Catholic University",
    "location": "Australia",
    "numberStudents": "24,087",
    "genderRatio": "73 : 27",
    "percIntlStudents": "13%",
    "studentsStaffRatio": "46.3"
  },
  {
    "ranking": 254,
    "title": "Brighton and Sussex Medical School",
    "location": "United Kingdom",
    "numberStudents": "900",
    "genderRatio": "59 : 41",
    "percIntlStudents": "14%",
    "studentsStaffRatio": "9.3",
    "_geoloc": {
      "lat": 50.8641901,
      "lng": -0.0857006
    }
  },
  {
    "ranking": 255,
    "title": "University at Buffalo",
    "location": "United States",
    "numberStudents": "26,341",
    "genderRatio": "44 : 56",
    "percIntlStudents": "16%",
    "studentsStaffRatio": "17.5",
    "_geoloc": {
      "lat": 43.0008093,
      "lng": -78.7889697
    }
  },
  {
    "ranking": 256,
    "title": "University of California, Riverside",
    "location": "United States",
    "numberStudents": "22,498",
    "genderRatio": "53 : 47",
    "percIntlStudents": "14%",
    "studentsStaffRatio": "17.7",
    "_geoloc": {
      "lat": 33.9737055,
      "lng": -117.3280644
    }
  },
  {
    "ranking": 257,
    "title": "University of Cincinnati",
    "location": "United States",
    "numberStudents": "29,309",
    "genderRatio": "51 : 49",
    "percIntlStudents": "9%",
    "studentsStaffRatio": "20.5",
    "_geoloc": {
      "lat": 39.1329219,
      "lng": -84.51495039999999
    }
  },
  {
    "ranking": 258,
    "title": "Dalhousie University",
    "location": "Canada",
    "numberStudents": "15,651",
    "genderRatio": "54 : 46",
    "percIntlStudents": "26%",
    "studentsStaffRatio": "13.3",
    "_geoloc": {
      "lat": 44.6356313,
      "lng": -63.5951737
    }
  },
  {
    "ranking": 259,
    "title": "Deakin University",
    "location": "Australia",
    "numberStudents": "41,341",
    "genderRatio": "57 : 43",
    "percIntlStudents": "26%",
    "studentsStaffRatio": "33.9"
  },
  {
    "ranking": 260,
    "title": "École des Ponts ParisTech",
    "location": "France",
    "numberStudents": "2,059",
    "genderRatio": "31 : 69",
    "percIntlStudents": "43%",
    "studentsStaffRatio": "11.5"
  },
  {
    "ranking": 261,
    "title": "École Normale Supérieure de Lyon",
    "location": "France",
    "numberStudents": "2,362",
    "genderRatio": "48 : 52",
    "percIntlStudents": "13%",
    "studentsStaffRatio": "9.0",
    "_geoloc": {
      "lat": 45.7332787,
      "lng": 4.8334497
    }
  },
  {
    "ranking": 262,
    "title": "Flinders University",
    "location": "Australia",
    "numberStudents": "17,167",
    "genderRatio": "64 : 36",
    "percIntlStudents": "40%",
    "studentsStaffRatio": "25.4"
  },
  {
    "ranking": 263,
    "title": "Florida State University",
    "location": "United States",
    "numberStudents": "38,368",
    "genderRatio": "57 : 43",
    "percIntlStudents": "7%",
    "studentsStaffRatio": "25.8",
    "_geoloc": {
      "lat": 30.4418778,
      "lng": -84.2984889
    }
  },
  {
    "ranking": 264,
    "title": "Friedrich Schiller University Jena",
    "location": "Germany",
    "numberStudents": "17,063",
    "genderRatio": "n/a",
    "percIntlStudents": "14%",
    "studentsStaffRatio": "20.1",
    "_geoloc": {
      "lat": 50.92943289999999,
      "lng": 11.5896642
    }
  },
  {
    "ranking": 265,
    "title": "George Mason University",
    "location": "United States",
    "numberStudents": "30,500",
    "genderRatio": "53 : 47",
    "percIntlStudents": "11%",
    "studentsStaffRatio": "18.1",
    "_geoloc": {
      "lat": 38.8314578,
      "lng": -77.31174709999999
    }
  },
  {
    "ranking": 266,
    "title": "Goethe University Frankfurt",
    "location": "Germany",
    "numberStudents": "46,481",
    "genderRatio": "57 : 43",
    "percIntlStudents": "16%",
    "studentsStaffRatio": "19.2",
    "_geoloc": {
      "lat": 50.1270675,
      "lng": 8.6677635
    }
  },
  {
    "ranking": 267,
    "title": "HSE University",
    "location": "Russian Federation",
    "numberStudents": "25,268",
    "genderRatio": "n/a",
    "percIntlStudents": "11%",
    "studentsStaffRatio": "14.8",
    "_geoloc": {
      "lat": 55.761458,
      "lng": 37.63327530000001
    }
  },
  {
    "ranking": 268,
    "title": "University of Illinois at Chicago",
    "location": "United States",
    "numberStudents": "27,031",
    "genderRatio": "52 : 48",
    "percIntlStudents": "20%",
    "studentsStaffRatio": "11.5",
    "_geoloc": {
      "lat": 41.8685636,
      "lng": -87.6484497
    }
  },
  {
    "ranking": 269,
    "title": "Jacobs University",
    "location": "Germany",
    "numberStudents": "1,353",
    "genderRatio": "43 : 57",
    "percIntlStudents": "76%",
    "studentsStaffRatio": "18.8",
    "_geoloc": {
      "lat": 53.1670277,
      "lng": 8.6516237
    }
  },
  {
    "ranking": 270,
    "title": "University of Kiel",
    "location": "Germany",
    "numberStudents": "27,181",
    "genderRatio": "53 : 47",
    "percIntlStudents": "8%",
    "studentsStaffRatio": "22.3",
    "_geoloc": {
      "lat": 54.3435076,
      "lng": 10.1149433
    }
  },
  {
    "ranking": 271,
    "title": "University of Konstanz",
    "location": "Germany",
    "numberStudents": "11,553",
    "genderRatio": "55 : 45",
    "percIntlStudents": "13%",
    "studentsStaffRatio": "51.1",
    "_geoloc": {
      "lat": 47.6898803,
      "lng": 9.187944200000002
    }
  },
  {
    "ranking": 272,
    "title": "Kyung Hee University",
    "location": "South Korea",
    "numberStudents": "20,862",
    "genderRatio": "54 : 46",
    "percIntlStudents": "23%",
    "studentsStaffRatio": "17.5",
    "_geoloc": {
      "lat": 37.5967122,
      "lng": 127.0513948
    }
  },
  {
    "ranking": 273,
    "title": "Université Laval",
    "location": "Canada",
    "numberStudents": "28,874",
    "genderRatio": "58 : 42",
    "percIntlStudents": "13%",
    "studentsStaffRatio": "17.2",
    "_geoloc": {
      "lat": 46.78174629999999,
      "lng": -71.2747424
    }
  },
  {
    "ranking": 274,
    "title": "Macau University of Science and Technology",
    "location": "Macao",
    "numberStudents": "10,596",
    "genderRatio": "56 : 44",
    "percIntlStudents": "84%",
    "studentsStaffRatio": "24.9",
    "_geoloc": {
      "lat": 22.152579,
      "lng": 113.5676887
    }
  },
  {
    "ranking": 275,
    "title": "University of Navarra",
    "location": "Spain",
    "numberStudents": "11,329",
    "genderRatio": "54 : 46",
    "percIntlStudents": "24%",
    "studentsStaffRatio": "14.9"
  },
  {
    "ranking": 276,
    "title": "University of Newcastle",
    "location": "Australia",
    "numberStudents": "23,221",
    "genderRatio": "55 : 45",
    "percIntlStudents": "18%",
    "studentsStaffRatio": "21.7",
    "_geoloc": {
      "lat": -32.8927718,
      "lng": 151.7041775
    }
  },
  {
    "ranking": 277,
    "title": "University of New Mexico (Main campus)",
    "location": "United States",
    "numberStudents": "18,277",
    "genderRatio": "56 : 44",
    "percIntlStudents": "5%",
    "studentsStaffRatio": "16.3",
    "_geoloc": {
      "lat": 35.0843187,
      "lng": -106.6197812
    }
  },
  {
    "ranking": 278,
    "title": "Nova Southeastern University",
    "location": "United States",
    "numberStudents": "17,101",
    "genderRatio": "70 : 30",
    "percIntlStudents": "6%",
    "studentsStaffRatio": "21.2",
    "_geoloc": {
      "lat": 26.0786011,
      "lng": -80.2457075
    }
  },
  {
    "ranking": 279,
    "title": "Oregon Health and Science University",
    "location": "United States",
    "numberStudents": "2,999",
    "genderRatio": "66 : 34",
    "percIntlStudents": "3%",
    "studentsStaffRatio": "1.0"
  },
  {
    "ranking": 280,
    "title": "University of Padua",
    "location": "Italy",
    "numberStudents": "46,900",
    "genderRatio": "55 : 45",
    "percIntlStudents": "7%",
    "studentsStaffRatio": "21.7",
    "_geoloc": {
      "lat": 45.4067393,
      "lng": 11.8771509
    }
  },
  {
    "ranking": 281,
    "title": "University of Potsdam",
    "location": "Germany",
    "numberStudents": "20,668",
    "genderRatio": "57 : 43",
    "percIntlStudents": "12%",
    "studentsStaffRatio": "55.0",
    "_geoloc": {
      "lat": 52.4010314,
      "lng": 13.0119098
    }
  },
  {
    "ranking": 282,
    "title": "Queen’s University",
    "location": "Canada",
    "numberStudents": "24,354",
    "genderRatio": "58 : 42",
    "percIntlStudents": "14%",
    "studentsStaffRatio": "26.1",
    "_geoloc": {
      "lat": 44.2252795,
      "lng": -76.49514119999999
    }
  },
  {
    "ranking": 283,
    "title": "Ruhr University Bochum",
    "location": "Germany",
    "numberStudents": "42,954",
    "genderRatio": "49 : 51",
    "percIntlStudents": "15%",
    "studentsStaffRatio": "59.5",
    "_geoloc": {
      "lat": 51.4468863,
      "lng": 7.2617049
    }
  },
  {
    "ranking": 284,
    "title": "Simon Fraser University",
    "location": "Canada",
    "numberStudents": "26,778",
    "genderRatio": "55 : 45",
    "percIntlStudents": "30%",
    "studentsStaffRatio": "27.5",
    "_geoloc": {
      "lat": 49.2780937,
      "lng": -122.9198833
    }
  },
  {
    "ranking": 285,
    "title": "University of Southern Denmark",
    "location": "Denmark",
    "numberStudents": "22,544",
    "genderRatio": "53 : 47",
    "percIntlStudents": "14%",
    "studentsStaffRatio": "12.7",
    "_geoloc": {
      "lat": 55.3689827,
      "lng": 10.4282364
    }
  },
  {
    "ranking": 286,
    "title": "Southern University of Science and Technology (SUSTech)",
    "location": "China",
    "numberStudents": "3,656",
    "genderRatio": "n/a",
    "percIntlStudents": "1%",
    "studentsStaffRatio": "9.0",
    "_geoloc": {
      "lat": 22.593969,
      "lng": 113.99894
    }
  },
  {
    "ranking": 287,
    "title": "State University of New York Albany",
    "location": "United States",
    "numberStudents": "16,078",
    "genderRatio": "53 : 47",
    "percIntlStudents": "9%",
    "studentsStaffRatio": "16.6",
    "_geoloc": {
      "lat": 42.6850273,
      "lng": -73.8247903
    }
  },
  {
    "ranking": 288,
    "title": "Stellenbosch University",
    "location": "South Africa",
    "numberStudents": "24,525",
    "genderRatio": "56 : 44",
    "percIntlStudents": "8%",
    "studentsStaffRatio": "25.9",
    "_geoloc": {
      "lat": -33.9328078,
      "lng": 18.864447
    }
  },
  {
    "ranking": 289,
    "title": "Sun Yat-sen University",
    "location": "China",
    "numberStudents": "53,734",
    "genderRatio": "50 : 50",
    "percIntlStudents": "8%",
    "studentsStaffRatio": "16.1",
    "_geoloc": {
      "lat": 23.0965384,
      "lng": 113.298883
    }
  },
  {
    "ranking": 290,
    "title": "University of Surrey",
    "location": "United Kingdom",
    "numberStudents": "14,315",
    "genderRatio": "54 : 46",
    "percIntlStudents": "38%",
    "studentsStaffRatio": "16.3",
    "_geoloc": {
      "lat": 51.2431429,
      "lng": -0.5894664
    }
  },
  {
    "ranking": 291,
    "title": "Swansea University",
    "location": "United Kingdom",
    "numberStudents": "17,353",
    "genderRatio": "45 : 55",
    "percIntlStudents": "22%",
    "studentsStaffRatio": "16.5",
    "_geoloc": {
      "lat": 51.62144,
      "lng": -3.943645999999999
    }
  },
  {
    "ranking": 292,
    "title": "University of Tartu",
    "location": "Estonia",
    "numberStudents": "8,735",
    "genderRatio": "68 : 32",
    "percIntlStudents": "10%",
    "studentsStaffRatio": "11.9",
    "_geoloc": {
      "lat": 58.37798299999999,
      "lng": 26.7290383
    }
  },
  {
    "ranking": 293,
    "title": "Università della Svizzera Italiana",
    "location": "Switzerland",
    "numberStudents": "2,713",
    "genderRatio": "49 : 51",
    "percIntlStudents": "67%",
    "studentsStaffRatio": "10.3",
    "_geoloc": {
      "lat": 46.0107081,
      "lng": 8.9581559
    }
  },
  {
    "ranking": 294,
    "title": "University College Dublin",
    "location": "Ireland",
    "numberStudents": "23,148",
    "genderRatio": "n/a",
    "percIntlStudents": "30%",
    "studentsStaffRatio": "23.2",
    "_geoloc": {
      "lat": 53.3064504,
      "lng": -6.2186939
    }
  },
  {
    "ranking": 295,
    "title": "Vita-Salute San Raffaele University",
    "location": "Italy",
    "numberStudents": "2,880",
    "genderRatio": "60 : 40",
    "percIntlStudents": "4%",
    "studentsStaffRatio": "9.8",
    "_geoloc": {
      "lat": 45.5069106,
      "lng": 9.267293800000001
    }
  },
  {
    "ranking": 296,
    "title": "Vrije Universiteit Brussel",
    "location": "Belgium",
    "numberStudents": "12,041",
    "genderRatio": "55 : 45",
    "percIntlStudents": "23%",
    "studentsStaffRatio": "29.8",
    "_geoloc": {
      "lat": 50.8476424,
      "lng": 4.3571696
    }
  },
  {
    "ranking": 297,
    "title": "Wake Forest University",
    "location": "United States",
    "numberStudents": "7,804",
    "genderRatio": "54 : 46",
    "percIntlStudents": "10%",
    "studentsStaffRatio": "4.1",
    "_geoloc": {
      "lat": 36.1354887,
      "lng": -80.2792887
    }
  },
  {
    "ranking": 298,
    "title": "Western Sydney University",
    "location": "Australia",
    "numberStudents": "34,750",
    "genderRatio": "56 : 44",
    "percIntlStudents": "20%",
    "studentsStaffRatio": "37.8"
  },
  {
    "ranking": 299,
    "title": "William & Mary",
    "location": "United States",
    "numberStudents": "8,278",
    "genderRatio": "56 : 44",
    "percIntlStudents": "9%",
    "studentsStaffRatio": "11.1",
    "_geoloc": {
      "lat": 37.2709753,
      "lng": -76.71624659999999
    }
  },
  {
    "ranking": 300,
    "title": "American University of Beirut",
    "location": "Lebanon",
    "numberStudents": "8,603",
    "genderRatio": "51 : 49",
    "percIntlStudents": "22%",
    "studentsStaffRatio": "8.4",
    "_geoloc": {
      "lat": 33.9008359,
      "lng": 35.480744
    }
  },
  {
    "ranking": 301,
    "title": "Anglia Ruskin University ARU",
    "location": "United Kingdom",
    "numberStudents": "18,932",
    "genderRatio": "64 : 36",
    "percIntlStudents": "33%",
    "studentsStaffRatio": "24.0",
    "_geoloc": {
      "lat": 52.20328689999999,
      "lng": 0.1344584
    }
  },
  {
    "ranking": 302,
    "title": "Autonomous University of Madrid",
    "location": "Spain",
    "numberStudents": "29,825",
    "genderRatio": "61 : 39",
    "percIntlStudents": "14%",
    "studentsStaffRatio": "13.5",
    "_geoloc": {
      "lat": 40.5466983,
      "lng": -3.6943619
    }
  },
  {
    "ranking": 303,
    "title": "Beijing Normal University",
    "location": "China",
    "numberStudents": "23,365",
    "genderRatio": "n/a",
    "percIntlStudents": "11%",
    "studentsStaffRatio": "14.9",
    "_geoloc": {
      "lat": 39.9619537,
      "lng": 116.3662615
    }
  },
  {
    "ranking": 304,
    "title": "Boston College",
    "location": "United States",
    "numberStudents": "12,921",
    "genderRatio": "54 : 46",
    "percIntlStudents": "11%",
    "studentsStaffRatio": "15.5",
    "_geoloc": {
      "lat": 42.3355488,
      "lng": -71.16849450000001
    }
  },
  {
    "ranking": 305,
    "title": "University of California, Merced",
    "location": "United States",
    "numberStudents": "7,849",
    "genderRatio": "51 : 49",
    "percIntlStudents": "9%",
    "studentsStaffRatio": "21.2",
    "_geoloc": {
      "lat": 37.3647026,
      "lng": -120.4240941
    }
  },
  {
    "ranking": 306,
    "title": "University of Colorado Denver",
    "location": "United States",
    "numberStudents": "17,112",
    "genderRatio": "56 : 44",
    "percIntlStudents": "8%",
    "studentsStaffRatio": "4.0",
    "_geoloc": {
      "lat": 39.7463596,
      "lng": -105.002342
    }
  },
  {
    "ranking": 307,
    "title": "Cyprus University of Technology",
    "location": "Cyprus",
    "numberStudents": "3,176",
    "genderRatio": "55 : 45",
    "percIntlStudents": "11%",
    "studentsStaffRatio": "17.4",
    "_geoloc": {
      "lat": 34.675141,
      "lng": 33.044167
    }
  },
  {
    "ranking": 308,
    "title": "University of Delaware",
    "location": "United States",
    "numberStudents": "21,564",
    "genderRatio": "57 : 43",
    "percIntlStudents": "10%",
    "studentsStaffRatio": "17.1",
    "_geoloc": {
      "lat": 39.6779504,
      "lng": -75.7506114
    }
  },
  {
    "ranking": 309,
    "title": "University of Essex",
    "location": "United Kingdom",
    "numberStudents": "12,435",
    "genderRatio": "53 : 47",
    "percIntlStudents": "38%",
    "studentsStaffRatio": "15.6",
    "_geoloc": {
      "lat": 51.87772589999999,
      "lng": 0.9472069000000001
    }
  },
  {
    "ranking": 310,
    "title": "University of Greifswald",
    "location": "Germany",
    "numberStudents": "10,179",
    "genderRatio": "56 : 44",
    "percIntlStudents": "7%",
    "studentsStaffRatio": "21.0",
    "_geoloc": {
      "lat": 54.0949653,
      "lng": 13.374584
    }
  },
  {
    "ranking": 311,
    "title": "Huazhong University of Science and Technology",
    "location": "China",
    "numberStudents": "56,941",
    "genderRatio": "36 : 64",
    "percIntlStudents": "6%",
    "studentsStaffRatio": "16.3",
    "_geoloc": {
      "lat": 30.5130043,
      "lng": 114.4202756
    }
  },
  {
    "ranking": 312,
    "title": "Illinois Institute of Technology",
    "location": "United States",
    "numberStudents": "6,092",
    "genderRatio": "36 : 64",
    "percIntlStudents": "49%",
    "studentsStaffRatio": "14.5",
    "_geoloc": {
      "lat": 41.8348731,
      "lng": -87.6270059
    }
  },
  {
    "ranking": 313,
    "title": "Indian Institute of Science",
    "location": "India",
    "numberStudents": "4,038",
    "genderRatio": "27 : 73",
    "percIntlStudents": "1%",
    "studentsStaffRatio": "9.3",
    "_geoloc": {
      "lat": 13.0143881,
      "lng": 77.56771599999999
    }
  },
  {
    "ranking": 314,
    "title": "Johannes Gutenberg University of Mainz",
    "location": "Germany",
    "numberStudents": "31,773",
    "genderRatio": "59 : 41",
    "percIntlStudents": "11%",
    "studentsStaffRatio": "25.7",
    "_geoloc": {
      "lat": 49.9926403,
      "lng": 8.241555199999999
    }
  },
  {
    "ranking": 315,
    "title": "University of Kent",
    "location": "United Kingdom",
    "numberStudents": "17,843",
    "genderRatio": "53 : 47",
    "percIntlStudents": "30%",
    "studentsStaffRatio": "19.3",
    "_geoloc": {
      "lat": 51.2967395,
      "lng": 1.0630042
    }
  },
  {
    "ranking": 316,
    "title": "University of Klagenfurt",
    "location": "Austria",
    "numberStudents": "3,361",
    "genderRatio": "69 : 31",
    "percIntlStudents": "23%",
    "studentsStaffRatio": "10.1",
    "_geoloc": {
      "lat": 46.6160474,
      "lng": 14.2654238
    }
  },
  {
    "ranking": 317,
    "title": "Kurdistan University of Medical Sciences",
    "location": "Iran",
    "numberStudents": "2,927",
    "genderRatio": "51 : 49",
    "percIntlStudents": "1%",
    "studentsStaffRatio": "11.0",
    "_geoloc": {
      "lat": 35.2842091,
      "lng": 47.00147949999999
    }
  },
  {
    "ranking": 318,
    "title": "University of Macau",
    "location": "Macao",
    "numberStudents": "9,343",
    "genderRatio": "56 : 44",
    "percIntlStudents": "36%",
    "studentsStaffRatio": "14.0",
    "_geoloc": {
      "lat": 22.130002,
      "lng": 113.5457795
    }
  },
  {
    "ranking": 319,
    "title": "University of Malaya",
    "location": "Malaysia",
    "numberStudents": "15,794",
    "genderRatio": "65 : 35",
    "percIntlStudents": "20%",
    "studentsStaffRatio": "8.3",
    "_geoloc": {
      "lat": 3.1217233,
      "lng": 101.6536844
    }
  },
  {
    "ranking": 320,
    "title": "University of Marburg",
    "location": "Germany",
    "numberStudents": "24,527",
    "genderRatio": "55 : 45",
    "percIntlStudents": "12%",
    "studentsStaffRatio": "32.6",
    "_geoloc": {
      "lat": 50.8101824,
      "lng": 8.7739563
    }
  },
  {
    "ranking": 321,
    "title": "Montpellier University",
    "location": "France",
    "numberStudents": "39,703",
    "genderRatio": "53 : 47",
    "percIntlStudents": "15%",
    "studentsStaffRatio": "19.7",
    "_geoloc": {
      "lat": 43.615794,
      "lng": 3.872109199999999
    }
  },
  {
    "ranking": 322,
    "title": "National University of Ireland, Galway",
    "location": "Ireland",
    "numberStudents": "14,453",
    "genderRatio": "58 : 42",
    "percIntlStudents": "18%",
    "studentsStaffRatio": "26.6",
    "_geoloc": {
      "lat": 53.27915489999999,
      "lng": -9.0617372
    }
  },
  {
    "ranking": 323,
    "title": "North Carolina State University",
    "location": "United States",
    "numberStudents": "29,966",
    "genderRatio": "46 : 54",
    "percIntlStudents": "15%",
    "studentsStaffRatio": "12.5",
    "_geoloc": {
      "lat": 35.7850744,
      "lng": -78.6812824
    }
  },
  {
    "ranking": 324,
    "title": "University of Oregon",
    "location": "United States",
    "numberStudents": "22,019",
    "genderRatio": "54 : 46",
    "percIntlStudents": "10%",
    "studentsStaffRatio": "10.6",
    "_geoloc": {
      "lat": 44.0448302,
      "lng": -123.0726055
    }
  },
  {
    "ranking": 325,
    "title": "University of Oulu",
    "location": "Finland",
    "numberStudents": "9,822",
    "genderRatio": "53 : 47",
    "percIntlStudents": "7%",
    "studentsStaffRatio": "26.6",
    "_geoloc": {
      "lat": 65.0593177,
      "lng": 25.4662935
    }
  },
  {
    "ranking": 326,
    "title": "University of Passau",
    "location": "Germany",
    "numberStudents": "11,249",
    "genderRatio": "59 : 41",
    "percIntlStudents": "14%",
    "studentsStaffRatio": "91.4",
    "_geoloc": {
      "lat": 48.5677779,
      "lng": 13.4527974
    }
  },
  {
    "ranking": 327,
    "title": "Peter the Great St Petersburg Polytechnic University",
    "location": "Russian Federation",
    "numberStudents": "16,768",
    "genderRatio": "39 : 61",
    "percIntlStudents": "31%",
    "studentsStaffRatio": "9.2",
    "_geoloc": {
      "lat": 60.0076235,
      "lng": 30.3731954
    }
  },
  {
    "ranking": 328,
    "title": "Qatar University",
    "location": "Qatar",
    "numberStudents": "8,808",
    "genderRatio": "75 : 25",
    "percIntlStudents": "37%",
    "studentsStaffRatio": "9.2",
    "_geoloc": {
      "lat": 25.377281,
      "lng": 51.49117099999999
    }
  },
  {
    "ranking": 329,
    "title": "Reykjavík University",
    "location": "Iceland",
    "numberStudents": "2,501",
    "genderRatio": "46 : 54",
    "percIntlStudents": "9%",
    "studentsStaffRatio": "23.4",
    "_geoloc": {
      "lat": 64.1238339,
      "lng": -21.9269375
    }
  },
  {
    "ranking": 330,
    "title": "RMIT University",
    "location": "Australia",
    "numberStudents": "33,427",
    "genderRatio": "48 : 52",
    "percIntlStudents": "33%",
    "studentsStaffRatio": "23.1",
    "_geoloc": {
      "lat": -37.8083332,
      "lng": 144.9639386
    }
  },
  {
    "ranking": 331,
    "title": "Royal Holloway, University of London",
    "location": "United Kingdom",
    "numberStudents": "9,686",
    "genderRatio": "58 : 42",
    "percIntlStudents": "35%",
    "studentsStaffRatio": "14.7",
    "_geoloc": {
      "lat": 51.425673,
      "lng": -0.5630625
    }
  },
  {
    "ranking": 332,
    "title": "Rush University",
    "location": "United States",
    "numberStudents": "2,624",
    "genderRatio": "74 : 26",
    "percIntlStudents": "2%",
    "studentsStaffRatio": "2.2",
    "_geoloc": {
      "lat": 41.8734416,
      "lng": -87.6689797
    }
  },
  {
    "ranking": 333,
    "title": "Sejong University",
    "location": "South Korea",
    "numberStudents": "12,207",
    "genderRatio": "46 : 54",
    "percIntlStudents": "11%",
    "studentsStaffRatio": "20.2",
    "_geoloc": {
      "lat": 37.5518018,
      "lng": 127.0736345
    }
  },
  {
    "ranking": 334,
    "title": "University of South Australia",
    "location": "Australia",
    "numberStudents": "20,930",
    "genderRatio": "58 : 42",
    "percIntlStudents": "20%",
    "studentsStaffRatio": "30.6",
    "_geoloc": {
      "lat": -30.0002315,
      "lng": 136.2091547
    }
  },
  {
    "ranking": 335,
    "title": "University of Stirling",
    "location": "United Kingdom",
    "numberStudents": "9,548",
    "genderRatio": "63 : 37",
    "percIntlStudents": "24%",
    "studentsStaffRatio": "16.7",
    "_geoloc": {
      "lat": 56.146092,
      "lng": -3.9177579
    }
  },